stop_id;stop_name;stop_lat;stop_lon;stop_code;location_type;parent_station;wheelchair_boarding;stop_direction
002133;ors vezer tere M+H, deli taroloter;47.500366;19.135700;002133;;CS003106;2;
002136;Fogas uzem (kapu);47.509119;19.014403;;;;;
002138;Kobanya also vasutallomas;47.483354;19.127803;002138;;CSF01800;2;
003002;Puskas Ferenc Stadion M;47.500368;19.103406;003002;;CS008132;2;
003105;Becsi ut / Vorosvari ut;47.548817;19.029722;003105;;CSF00571;2;
003106;ors vezer tere M+H, eszaki tarolo;47.505160;19.136637;003106;;CS003106;2;
003118;obuda, Bogdani ut;47.551471;19.041971;003118;;CS003118;2;
004716;eD metro jarmutelep,porta;47.469651;19.129090;;;;2;
004948;Metro eD jarmutelep (kapu);47.465239;19.142612;;;;;
004952;Metro KNY jarmutelep (kapu);47.502234;19.132179;;;;;
005815;ujpest-Varoskapu M;47.559251;19.078625;005815;;CS005815;2;
005924;Mill.FAV jarmutelep (kapu);47.518788;19.093168;;;;;
006390;Cinkota kocsiszin (kapu);47.519345;19.217072;006390;;CSF03304;;
007177;Csepel kocsiszin (kapu);47.421498;19.066247;007177;;CS007177;;
007675;Dunaharaszti kulso kocsiszin (kapu);47.362751;19.088475;;;;;
007762;Szentendre kocsiszin (kapu);47.658755;19.072392;007762;;CS009119;;
007817;Marta utca;47.428685;18.929674;;;;2;49
007877;Birosag;47.519564;18.978068;007877;;CS007877;2;-78
007878;Birosag;47.519456;18.978041;007878;;CS007877;2;101
007879;Romai uti lakotelep, Varsa utca;47.570863;19.058543;;;;2;93
007880;Becsi ut / Vorosvari ut;47.547647;19.028766;007880;;CSF00571;2;
007881;Varadi utca;47.543771;19.030123;007881;;CSF00591;2;-10
007882;Varadi utca;47.542691;19.029977;007882;;CSF00591;2;168
007883;Perenyi ut;47.545812;19.029591;;;;2;-8
007884;Deak Ferenc ter M;47.497413;19.055158;007884;;CS038717;1;
007887;Mester utca / Ferenc korut;47.482246;19.068716;007887;;CSF01380;2;15
007888;Mester utca / Ferenc korut;47.482570;19.068477;007888;;CSF01380;2;-163
007890;Mester utca / Ferenc korut;47.481671;19.068782;007890;;CSF01380;2;
007897;Kelenfold vasutallomas M;47.464597;19.022948;007897;;CS007967;2;98
007899;Kelenfold vasutallomas M;47.464744;19.022994;007899;;CS007967;2;
007900;Maros utcai rendelointezet;47.503728;19.022391;;;;2;143
007902;ujpest-Varoskapu M;47.558600;19.078220;007902;;CS005815;2;
007913;526. sor;47.479281;19.211332;007913;;CS007914;2;118
007914;526. sor;47.479300;19.211468;007914;;CS007914;2;-58
007919;Polus Center;47.552619;19.143665;;;;2;-100
007923;Kele utca;47.431808;19.173804;;;;1;29
007924;ultetveny utca;47.396915;19.175497;007924;;CS007924;2;44
007927;Ferihegy vasutallomas;47.438405;19.222663;007927;;CS007927;2;-43
007928;Ferihegy vasutallomas;47.437693;19.223443;007928;;CS007927;2;134
007930;Savoyai Jeno ter (Torley ter);47.430374;19.036286;007930;;CS007930;1;
007931;Savoyai Jeno ter (Torley ter);47.430374;19.036551;007931;;CS007930;1;-93
007949;Kocsis Sandor ut;47.574316;19.013288;;;;1;-130
007950;Keleti palyaudvar M;47.501104;19.082712;007950;;CSF01132;1;
007967;Kelenfold vasutallomas M;47.465750;19.021836;007967;;CS007967;1;
007968;Mogyorod utja;47.570602;19.128267;;;;1;38
007972;Huvosvolgy;47.543166;18.964394;007972;;CS007976;2;
007973;Huvosvolgy;47.542923;18.964567;007973;;CS007976;2;153
007974;Huvosvolgy;47.542635;18.964753;007974;;CS007976;2;
007975;Huvosvolgy;47.543243;18.964281;007975;;CS007976;2;
007976;Huvosvolgy;47.543264;18.963995;007976;;CS007976;2;
007977;Huvosvolgy;47.542968;18.964195;007977;;CS007976;2;
007978;Huvosvolgy;47.542707;18.964355;007978;;CS007976;2;
007979;Vorosmarty utca M;47.507468;19.066509;007979;;CSF01090;2;-132
007980;Vorosmarty utca M;47.507444;19.066767;007980;;CSF01090;2;45
007995;Jokai Mor utca;47.410717;19.020681;007995;;CS007995;2;-31
007996;Budateteny vasutallomas (Campona);47.405724;19.013796;007996;;CS007997;1;
007997;Budateteny vasutallomas (Campona);47.405963;19.014089;007997;;CS007997;1;
007998;Budateteny vasutallomas (Campona);47.405705;19.014297;007998;;CS007997;1;
007999;Budateteny vasutallomas (Campona);47.405711;19.014142;007999;;CS007997;1;
008003;Budagyongye;47.515894;18.999506;008003;;CSF00166;2;
008005;Moricz Zsigmond korter M;47.477023;19.047527;008005;;CS022814;1;
008006;Kelenfold vasutallomas M;47.464840;19.022311;008006;;CS007967;2;
008018;ors vezer tere M+H, uj taroloter;47.500933;19.135714;008018;;CS003106;2;
008020;ors vezer tere M+H;47.501005;19.136378;008020;;CS003106;2;
008021;ors vezer tere M+H;47.501814;19.136233;008021;;CS003106;2;
008022;ors vezer tere M+H;47.501355;19.136333;008022;;CS003106;2;
008023;ors vezer tere M+H;47.501535;19.136180;008023;;CS003106;2;
008024;ors vezer tere M+H;47.501148;19.136213;008024;;CS003106;1;
008025;ors vezer tere M+H;47.501814;19.135915;008025;;CS003106;2;
008026;ors vezer tere M+H;47.501374;19.136007;008026;;CS003106;2;
008027;ors vezer tere M+H;47.501482;19.135861;008027;;CS003106;2;
008028;ors vezer tere M+H;47.501112;19.135882;008028;;CS003106;1;
008029;ors vezer tere M+H;47.502129;19.135703;008029;;CS003106;2;
008030;ors vezer tere M+H;47.501751;19.135617;008030;;CS003106;2;
008031;ors vezer tere M+H;47.501365;19.135688;008031;;CS003106;2;
008034;Nagyenyed utca;47.498103;19.023704;008034;;CSF00020;1;
008036;Kobanyai ut 31.;47.487478;19.104202;008036;;CSF01264;2;-68
008037;Kobanyai ut 31.;47.487506;19.103698;008037;;CSF01264;2;113
008040;Tas vezer utca;47.478606;19.040827;008040;;CS008041;2;105
008041;Tas vezer utca;47.478866;19.040866;008041;;CS008041;2;-64
008047;Lajosmizsei sorompo;47.450468;19.161410;008047;;CSF03735;2;-59
008050;Lipto utca;47.486100;19.007031;008050;;CS008050;2;-147
008051;Lipto utca;47.486010;19.007071;008051;;CS008050;2;32
008067;Szent Imre ter;47.430948;19.070300;008067;;CS041095;2;-176
008086;Szell Kalman ter M;47.507350;19.026352;008086;;CS073099;2;37
008087;Feny utcai piac;47.508510;19.023683;008087;;CS008087;2;-90
008090;Moricz Zsigmond korter M;47.477256;19.048786;008090;;CS022814;1;
008093;Del-pesti autobuszgarazs;47.426667;19.161783;008093;;CS043154;2;-124
008094;Del-pesti autobuszgarazs;47.426227;19.161000;008094;;CS043154;2;59
008095;Nagykorosi ut;47.425255;19.157029;008095;;CSF03630;2;-104
008096;Nagykorosi ut;47.425241;19.157512;008096;;CSF03630;2;75
008098;Szabina ut;47.436450;19.013416;008098;;CS061286;2;-167
008099;Pek utca;47.442037;19.018742;008099;;CSF04376;2;106
008100;Pek utca;47.442184;19.018652;008100;;CSF04376;2;-69
008101;Rozsavolgy felso;47.441102;19.022349;008101;;CS008102;2;117
008102;Rozsavolgy felso;47.441120;19.022627;008102;;CS008102;2;-57
008103;Rozsavolgy also;47.438280;19.030491;008103;;CSF04379;2;-60
008104;Rozsavolgy also;47.438270;19.029987;008104;;CSF04379;2;97
008106;Vihar utca;47.434313;19.035689;;;;2;154
008109;Damjanich utca;47.402518;18.991053;008109;;CS008109;1;22
008110;Barosstelep vasutallomas;47.399651;18.990905;008110;;CS008110;1;-91
008111;Barackos ut / Angeli utca;47.402248;18.974427;008111;;CS008111;1;-124
008112;Szakiskola utca;47.404959;18.975835;008112;;CSF04487;2;176
008113;Szilvafa utca;47.405214;18.982168;008113;;CS008113;2;-94
008114;Matyas kiraly utca;47.404319;18.990768;008114;;CS009447;2;-59
008115;Szebeni utca;47.430338;19.016061;008115;;CS008115;2;-81
008116;Szebeni utca;47.430177;19.016896;008116;;CS008115;2;99
008119;Matra utca;47.400104;18.997714;008119;;CSF04521;2;-103
008120;Budateteny vasutallomas (Campona);47.405630;19.013758;008120;;CS007997;2;
008124;Zoldike utca;47.430738;19.012823;008124;;CS008125;2;-73
008125;Zoldike utca;47.431205;19.012359;008125;;CS008125;2;154
008126;Hir utca;47.432896;19.011523;008126;;CS008127;2;15
008127;Hir utca;47.432914;19.011403;008127;;CS008127;2;-171
008128;Ady Endre ut;47.435906;19.036550;008128;;CS009541;2;-26
008132;Puskas Ferenc Stadion M;47.501283;19.107691;008132;;CS008132;1;
008146;Vajda Peter utca;47.481389;19.103174;008146;;CSF01258;1;-152
008147;Vajda Peter utca;47.481770;19.103619;008147;;CSF01258;1;33
008148;Kobanyai ut / Konyves Kalman korut;47.485742;19.107077;008148;;CSF01267;1;-150
008149;Kobanyai ut / Konyves Kalman korut;47.486236;19.107515;008149;;CSF01267;1;23
008150;Zsil utca;47.482940;19.062984;008150;;CSF01346;2;-45
008152;Mester utca / Konyves Kalman korut;47.469596;19.083728;008152;;CSF01507;1;-111
008153;Mester utca / Konyves Kalman korut;47.469723;19.084482;008153;;CSF01507;1;63
008155;Kozvagohid H;47.468737;19.072756;008155;;CSF01527;1;-94
008156;uj koztemeto;47.473522;19.178241;008156;;CSF01866;2;-6
008164;ors vezer tere M+H;47.501463;19.136578;008164;;CS003106;2;
008168;I. utca;47.401015;19.002721;008168;;CSF04468;2;-106
008169;I. utca;47.400931;19.003494;008169;;CSF04468;1;85
008170;Angeli utca / Nagytetenyi ut;47.390632;18.981022;008170;;CSF04499;2;51
008174;Nepliget M;47.475842;19.100499;008174;;CS086859;2;
008175;Nepliget, tarolo;47.475832;19.100183;008175;;CS086859;2;
008181;Cinkotai autobuszgarazs;47.498562;19.237779;008181;;CSF03286;2;
008187;Batthyany ter;47.506776;19.039318;008187;;CSF00062;2;
008206;Mexikoi ut M;47.519261;19.091048;008206;;CSF02974;1;
008209;Nagy Lajos kiraly utja / Czobor utca;47.522170;19.102815;008209;;CSF02868;1;114
008218;Szechenyi Istvan ter;47.499032;19.047008;008218;;CSF00974;2;165
008222;ors vezer tere M+H;47.503684;19.136443;008222;;CS003106;1;174
008238;Szechenyi Istvan ter;47.500588;19.046703;008238;;CSF00974;2;-122
008239;Mupa - Nemzeti Szinhaz H;47.471308;19.073063;008239;;CS008240;2;150
008240;Mupa - Nemzeti Szinhaz H;47.471335;19.073209;008240;;CS008240;2;-30
008241;Szonyi ut;47.526625;19.096220;;;;1;-40
008242;Teleki Blanka utca;47.523865;19.093761;;;;1;-156
008243;Szantofold utca;47.572244;19.138830;008243;;CS049185;2;-142
008245;Kolozsvar utcai piac;47.536842;19.114916;;;;1;-133
008246;Rakospalotai koztemeto;47.551240;19.136010;008246;;CSF03127;2;-50
008256;Deli palyaudvar M;47.500370;19.025412;008256;;CSF00025;2;
008260;Nagybanyai ut;47.528442;18.996170;008260;;CS008260;2;-108
008261;Nagybanyai ut;47.528352;18.996317;008261;;CS008260;2;71
008262;Hidegkuti Nandor Stadion;47.490690;19.108910;008262;;CSF01275;1;176
008263;Mupa - Nemzeti Szinhaz;47.469113;19.070051;008263;;CS008264;2;180
008264;Mupa - Nemzeti Szinhaz;47.469995;19.070144;008264;;CS008264;2;0
008265;Kozvagohid H;47.468737;19.073486;008265;;CSF01527;1;61
008267;Szentlorinci ut;47.424593;19.157763;008267;;CSF03632;2;
008269;Delej utca;47.484685;19.096357;008269;;CS008269;2;-64
008270;Delej utca;47.484460;19.096407;008270;;CS008269;1;105
008271;Szentendre;47.661038;19.075607;;;;2;
008272;Kozvagohid;47.466285;19.077170;;;;2;
008283;ocean-arok utca;47.590056;19.100627;008283;;CS008284;2;-123
008284;ocean-arok utca;47.590352;19.101585;008284;;CS008284;2;58
008286;Nepliget M;47.476294;19.099288;008286;;CS086859;1;24
008287;Nepliget M;47.476345;19.098937;008287;;CS086859;1;-151
008289;Szilagyi utca;47.570883;19.111334;008289;;CS008289;2;-73
008317;Bartok Bela utca;47.433298;18.919575;008317;;CS008317;2;-130
008318;Raktarvaros;47.441547;18.938276;008318;;CS008319;2;-123
008319;Raktarvaros;47.441566;18.938608;008319;;CS008319;2;56
008322;Haranglab;47.431924;18.914078;008322;;CSF04757;2;129
008323;Karolyi utca;47.437690;18.899546;;;;2;132
008324;Tukorhegy;47.436382;18.927085;008324;;CS008324;2;-125
008325;Tukorhegy;47.436211;18.926992;008325;;CS008324;2;55
008326;Ady Endre utca;47.435045;18.906261;008326;;CS008326;1;115
008328;Torokbalint Sportkozpont;47.440051;18.895734;008328;;CS074495;2;-49
008329;Torokbalint Sportkozpont;47.440284;18.895177;008329;;CS074495;2;132
008330;Hatar utca;47.445284;18.894300;008330;;CS008330;2;-5
008331;Hatar utca;47.444924;18.894036;008331;;CS008330;2;-159
008332;Hosszuret utca;47.446066;18.881264;;;;2;172
008333;Torokbalint, bevasarlokozpont;47.443242;18.887398;;;;2;
008336;Noveny utca;47.402071;19.015810;008336;;CS008337;2;54
008337;Noveny utca;47.402125;19.015254;008337;;CS008337;2;-127
008339;Budaorsi lakotelep;47.456025;18.940934;008339;;CSF04724;1;-105
008341;Templom ter;47.542367;19.130057;008341;;CS008341;2;166
008344;Kiralyhago ter;47.495421;19.018729;008344;;CSF02413;1;128
008345;Katona Jozsef utca;47.438346;18.906478;;;;2;138
008353;eszak-Pesti Korhaz;47.539377;19.122388;;;;2;46
008359;obudai autobuszgarazs;47.567996;19.026302;008359;;CS008360;1;
008360;obudai autobuszgarazs;47.568290;19.026730;008360;;CS008360;2;
008365;Becsi ut / Vorosvari ut;47.548489;19.028941;008365;;CSF00571;1;
008377;Nagykorosi ut / Hatar ut;47.456450;19.114660;008377;;CS008377;2;
008379;Kobanya also vasutallomas;47.483885;19.127207;008379;;CSF01800;2;
008380;Kobanya also vasutallomas;47.483256;19.128130;008380;;CSF01800;2;
008381;Kobanya also vasutallomas;47.484012;19.127561;008381;;CSF01800;2;
008382;ors vezer tere M+H;47.502448;19.136843;008382;;CS003106;1;-10
008383;ors vezer tere M+H;47.502623;19.136654;008383;;CS003106;1;145
008385;Rakospalota, MaV-telep;47.541293;19.121408;008385;;CSF03102;2;
008399;Pestszentimre vasutallomas;47.404251;19.186538;008399;;CSF03665;2;-137
008400;Dunakeszi, Auchan aruhaz;47.608972;19.117347;;;;2;
008402;Kert sor;47.591138;19.045357;008402;;CS008403;2;23
008403;Kert sor;47.591363;19.045370;008403;;CS008403;2;-156
008404;Csillaghegy H;47.584886;19.042047;008404;;CS008404;2;16
008405;Csillaghegy H;47.584817;19.041849;008405;;CS008404;2;-158
008406;Forrasliget lakopark;47.581153;19.037568;008406;;CS008407;2;49
008407;Forrasliget lakopark;47.581354;19.037795;008407;;CS008407;2;-110
008408;uromhegyi lejto;47.577645;19.032198;008408;;CS008409;2;15
008409;uromhegyi lejto;47.577663;19.032065;008409;;CS008409;2;-166
008410;Aranyhegyi lejto;47.572593;19.030301;008410;;CS008410;2;14
008411;Aranyhegyi lejto;47.572512;19.030128;008411;;CS008410;2;-164
008412;Becsi ut / Vorosvari ut;47.548475;19.029204;008412;;CSF00571;2;-1
008426;Kaposztasmegyer, Szilas-patak;47.577384;19.114891;008426;;CSF00859;2;8
008428;Budakalasz, Budai ut;47.617063;19.051534;008428;;CS008428;2;-19
008429;Budakalasz, Budai ut;47.616729;19.051767;008429;;CS008428;2;145
008430;Budakalasz, Lenfono H;47.620304;19.046374;008430;;CS008431;1;-9
008431;Budakalasz, Lenfono H;47.621800;19.045662;008431;;CS008431;1;149
008432;Szentistvantelep H;47.628444;19.043367;008432;;CS008432;2;-17
008433;Szentistvantelep H;47.627055;19.043879;008433;;CS008432;2;162
008434;Pomaz H;47.643897;19.030357;008434;;CS008434;1;-43
008435;Pomaz H;47.642594;19.031459;008435;;CS008434;2;128
008436;Szentendre, Papirgyar;47.648965;19.069449;008436;;CS008436;1;16
008437;Papirgyar;47.647762;19.069061;008437;;CS008436;1;177
008438;Egyetem;47.652306;19.071738;008438;;CS008438;1;20
008439;Egyetem;47.652067;19.071331;008439;;CS008438;1;-150
008447;Dioskert;47.425580;18.911840;;;;2;-95
008455;Jaszai Mari ter;47.512811;19.047938;008455;;CSF02511;2;
008458;Tisza Istvan ter;47.517230;19.107350;008458;;CS008458;1;-42
008459;Uzsoki Utcai Korhaz;47.519822;19.103742;008459;;CS008459;1;-42
008460;Uzsoki Utcai Korhaz;47.519642;19.103436;008460;;CS008459;1;
008461;Erzsebet kiralyne utja / Rona utca;47.521615;19.101317;;;;1;-41
008462;Bretzfeld utca;47.460552;18.945930;;;;2;153
008471;Del-pesti autobuszgarazs;47.426479;19.160895;008471;;CS043154;2;
008472;Del-pesti autobuszgarazs;47.426703;19.161134;008472;;CS043154;2;
008479;Homokbanya utca;47.399615;18.941000;;;;2;-42
008480;Petofi Sandor utca;47.402428;18.937682;008480;;CS009094;2;46
008481;Soroksar felso H;47.410028;19.111501;008481;;CSF04530;2;172
008486;Csonka Janos ter;47.470132;19.044780;008486;;CS009425;2;-167
008490;Hatar ut M;47.464573;19.126164;008490;;CS040762;2;
008491;Jaszberenyi ut;47.485549;19.192668;;;;2;8
008498;Aszodi utca;47.463482;19.101007;008498;;CSF01476;2;
008499;Kozteruletfenntarto Zrt.;47.467994;19.106702;008499;;CSF01481;2;-149
008500;Ecseri ut M;47.470485;19.108814;008500;;CSF01495;2;-150
008501;Ferencvarosi rendelointezet;47.476947;19.075454;008501;;CS008702;2;-119
008519;Timar utca H;47.533311;19.043634;;;;2;-145
008520;Szentlelek ter H;47.539380;19.047083;008520;;CSF00621;2;
008521;Serfozo utca;47.538327;19.046955;008521;;CS009295;2;178
008532;Kossuth Lajos ter M;47.505894;19.048562;008532;;CSF00970;1;-99
008535;Cinkotai autobuszgarazs;47.498283;19.237565;008535;;CSF03286;2;
008544;Szepvolgyi ut H;47.527482;19.039956;;;;2;-169
008545;Puskas Ferenc Stadion M;47.500105;19.107013;008545;;CS008132;1;-97
008546;Boraros ter H;47.479809;19.067866;008546;;CS009739;2;
008548;Gyal, Bem Jozsef utca;47.372935;19.216779;;;;2;131
008549;Kisfaludy Sandor utca;47.375035;19.213621;;;;2;134
008550;Toldi Miklos utca;47.377325;19.210039;;;;2;133
008551;Bacso Bela utca;47.379534;19.206696;;;;2;133
008552;Erdosor utca;47.383039;19.201912;;;;2;-138
008553;Bajcsy-Zsilinszky utca;47.385653;19.204449;;;;2;133
008559;Korompai utca;47.484896;19.012508;008559;;CS008559;2;-96
008560;Korompai utca;47.484815;19.012866;008560;;CS008559;2;84
008567;Gazdagreti ter;47.473321;18.992775;008567;;CSF02229;2;34
008569;Cinkotai autobuszgarazs;47.498194;19.237086;008569;;CSF03286;2;-120
008575;Taviro utca;47.461151;19.118990;;;;2;42
008577;Rakoshegy vasutallomas;47.467968;19.244845;008577;;CSF03528;2;-81
008587;Gyali ut;47.456515;19.111039;008587;;CS008587;2;-102
008588;Gyali ut;47.456326;19.110349;008588;;CS008587;2;78
008589;Gyali ut;47.466017;19.103463;008589;;CS008589;2;-37
008590;Szent Gellert ter M;47.483337;19.053086;008590;;CS044592;1;-154
008591;Szent Gellert ter M;47.483616;19.053537;008591;;CS044592;1;38
008593;Moricz Zsigmond korter M;47.476836;19.047188;008593;;CS022814;1;-177
008597;Sport utca;47.455942;18.948108;;;;1;176
008598;Baross utca;47.460328;18.958490;008598;;CS008598;2;-10
008605;Kolosy ter;47.527590;19.036729;008605;;CSF00137;1;96
008642;Szekesdulo;47.611119;19.104279;008642;;CS008643;2;62
008643;Szekesdulo;47.611164;19.104053;008643;;CS008643;2;-120
008644;Vizmuvek;47.599539;19.092791;008644;;CS008645;2;34
008645;Vizmuvek;47.600312;19.093310;008645;;CS008645;2;-144
008646;aruhazi bekotout;47.386494;19.022627;008646;;CS008647;2;-119
008647;aruhazi bekotout;47.386539;19.023091;008647;;CS008647;2;66
008649;Szekesdulo, ipartelep;47.615164;19.109245;008649;;CS008649;2;22
008650;Szekesdulo, ipartelep;47.614750;19.108806;008650;;CS008649;2;-158
008651;Auchan Sziget aruhaz;47.384381;19.025807;008651;;CS008651;2;153
008652;Auchan Sziget aruhaz;47.384174;19.025966;008652;;CS008651;2;154
008670;Auchan Liget;47.541169;19.247043;008670;;CS074909;2;
008681;Hidegkuti Nandor Stadion;47.490533;19.110469;008681;;CSF01275;2;
008684;Albertfalva kitero;47.452693;19.038524;008684;;CS008685;2;-168
008685;Albertfalva kitero;47.452801;19.038961;008685;;CS008685;2;8
008692;Felsocsatari koz;47.458682;19.177051;008692;;CS008692;2;
008694;Koztelek utca;47.487044;19.066933;;;;2;125
008697;ujpest-Kozpont M;47.560751;19.090152;008697;;CSF00911;2;
008702;Ferencvarosi rendelointezet;47.477155;19.075785;008702;;CS008702;2;107
008708;Vizmuvek lakotelep;47.597822;19.091606;008708;;CS008708;2;34
008725;Puskas Ferenc Stadion M;47.499900;19.104879;008725;;CS008132;2;
008731;Budagyongye;47.516074;18.998922;008731;;CSF00166;2;
008736;Daniel ut;47.512863;18.994978;008736;;CS008737;2;
008737;Daniel ut;47.512881;18.994739;008737;;CS008737;2;117
008740;ujbuda-kozpont M;47.474683;19.046385;008740;;CSF01999;2;-165
008750;Batthyany ter M+H;47.505696;19.039323;008750;;CSF00065;1;175
008754;Pestszentimre vasutallomas (Dozsa Gy.u.);47.403586;19.185688;008754;;CSF03665;2;49
008772;Pestszentlorinc vasutallomas;47.454646;19.181749;008772;;CSF03845;2;
008775;Ilonatelep H;47.525831;19.228646;008775;;CSF03334;2;46
008782;Blaha Lujza ter M;47.496881;19.069160;008782;;CSF01116;1;
008785;Puskas Ferenc Stadion M;47.499936;19.105237;008785;;CS008132;2;
008788;Koerberek;47.445299;18.999585;008788;;CS009351;2;-63
008789;Koerberek;47.445218;19.000036;008789;;CS009351;2;89
008792;Normafa;47.502448;18.965905;008792;;CSF02489;2;-159
008793;Regenyes utca;47.429436;19.020658;008793;;CSF04421;2;180
008801;Savoya Park;47.436482;19.040103;008801;;CS009578;2;
008802;Savoya Park;47.435847;19.042385;008802;;CS009578;1;-75
008832;Szakorvosi rendelointezet;47.443871;19.181125;;;;2;29
008841;ives ut;47.592804;19.107611;008841;;CS044135;2;60
008842;ives ut;47.592598;19.106813;008842;;CS044135;2;-120
008844;Egressy ut / Vezer utca;47.519260;19.126312;008844;;CSF02804;1;-142
008845;Kelenfold vasutallomas M;47.464723;19.023213;008845;;CS007967;2;7
008846;Mehecske utca;47.448032;18.947797;008846;;CS008846;2;180
008847;Mehecske utca;47.447979;18.947970;008847;;CS008846;2;-4
008850;Mikszath Kalman utca;47.451162;19.176781;008850;;CS008850;2;-55
008863;Gozmozdony utca;47.470054;19.157193;;;;2;-144
008864;Savoya Park;47.435991;19.041549;008864;;CS009578;1;102
008893;Csepeli atjaro;47.436339;19.092257;008893;;CSF04147;2;-98
008894;Vizisport utca;47.433997;19.091263;008894;;CS009718;2;144
008895;Teremszeg utca;47.432951;19.092221;;;;2;163
008896;Pesterzsebet vasutallomas;47.433417;19.096414;008896;;CSF04121;2;81
008898;Szakorvosi rendelo;47.440886;19.101780;;;;2;-39
008900;arpad hid M;47.531904;19.066158;008900;;CSF02601;1;-160
008903;Szentmihalyi ut;47.541396;19.151947;008903;;CSF03144;2;64
008904;Ketujfalu utca;47.419522;19.209134;008904;;CS008904;2;28
008910;Kaposztasmegyer, Mogyorodi-patak;47.598348;19.121429;008910;;CS009536;2;100
008911;Homoktovis iskola;47.597234;19.117084;008911;;CS008911;2;50
008912;Hidegkuti Nandor Stadion;47.490246;19.110044;008912;;CSF01275;2;80
008915;Jaszberenyi ut / Maglodi ut;47.490399;19.148450;008915;;CSF01615;2;
008916;Kobanyai garazs;47.490648;19.114424;008916;;CS074021;2;-99
008917;Kobanyai garazs;47.490684;19.113853;008917;;CS074021;2;89
008918;Budateteny, benzinkut;47.430123;19.003651;;;;2;-156
008919;Pongratz Gergely ter;47.509771;19.128546;008919;;CS008919;1;-46
008921;Del-pesti autobuszgarazs;47.426613;19.161081;008921;;CS043154;2;
008922;Gyula vezer ut;47.409254;19.003430;008922;;CS008971;2;-133
008923;Kabai utca;47.495749;19.160431;008923;;CS008923;2;-47
008924;Kabai utca;47.495605;19.160418;008924;;CS008923;2;135
008939;Bekasmegyer H;47.598408;19.054259;008939;;CS008940;2;120
008940;Bekasmegyer H;47.598633;19.054086;008940;;CS008940;2;
008941;Vaci ut;47.561245;19.079377;;;;2;-79
008942;ors vezer tere M+H;47.503279;19.137603;008942;;CS003106;2;82
008943;Budateteny, benzinkut;47.431086;19.004419;;;;2;20
008944;ujpest-Varoskapu M (Vaci ut);47.556577;19.076558;008944;;CS005815;2;
008945;ujpest-Varoskapu M (Vaci ut);47.558110;19.076876;008945;;CS005815;1;-164
008946;Szenas utca;47.527604;19.181627;;;;2;55
008947;Szlovak ut;47.531165;19.189578;;;;2;51
008948;Kucorgo ter;47.469328;19.295153;008948;;CS008948;2;170
008949;Pestszentimre vasutall. (Nagykorosi ut);47.403423;19.186602;008949;;CSF03665;2;136
008950;Pestszentimre vasutall. (Nagykorosi ut);47.404315;19.185664;008950;;CSF03665;2;-39
008951;Beke ter;47.430019;19.215675;008951;;CS008951;2;-64
008952;Terv utca;47.408012;19.001509;008952;;CSF04463;2;-132
008953;Csillag utca;47.409214;19.119000;008953;;CS008954;2;173
008954;Csillag utca;47.409565;19.119053;008954;;CS008954;2;-7
008955;Gombosszeg koz;47.413020;19.118396;008955;;CS008955;2;-171
008956;Gombosszeg koz;47.412723;19.118475;008956;;CS008955;2;0
008957;Elod utca;47.418651;19.117329;;;;2;141
008958;Also hatarut;47.416313;19.116399;008958;;CS008958;2;24
008959;Templom utca 6.;47.408876;19.113620;;;;2;167
008960;Gyali-patak;47.394698;19.116570;008960;;CS049172;2;-150
008961;Soroksar, Hosok tere H;47.399339;19.116483;008961;;CSF04542;2;75
008962;Szent Istvan utca H;47.392297;19.115202;008962;;CS008962;2;31
008963;Grassalkovich ut;47.390505;19.118896;;;;2;153
008964;Tartsay utca;47.421343;19.127194;;;;2;48
008965;Szent Laszlo utca;47.421272;19.126902;008965;;CS008965;2;-132
008966;Szentlorinci uti lakotelep;47.417227;19.131105;008966;;CS008966;1;-35
008967;Szentlorinci uti lakotelep;47.416957;19.131198;008967;;CS008966;1;140
008971;Gyula vezer ut;47.409902;19.004383;008971;;CS008971;2;34
009000;Kistarcsa H;47.545503;19.259839;009000;;CS009001;2;43
009001;Kistarcsa H;47.545584;19.259693;009001;;CS009001;2;-127
009002;Kerepes H;47.552441;19.270507;009002;;CS009002;2;49
009003;Kerepes H;47.551324;19.268897;009003;;CS009002;2;-131
009004;Szilasligeti elagazas;47.560201;19.283112;009004;;CS009006;2;43
009005;Kerepes, Szabadsag utja;47.560786;19.282783;;;;2;135
009006;Szilasligeti elagazas;47.560766;19.283700;009006;;CS009006;2;-135
009007;Szilasliget, Posta;47.569550;19.272176;009007;;CS009008;2;39
009008;Szilasliget, Posta;47.569882;19.272430;009008;;CS009008;2;-121
009009;Szilasliget, Wesselenyi utca;47.573117;19.269227;009009;;CS009009;2;-44
009010;Szilasliget, Wesselenyi utca;47.572955;19.269240;009010;;CS009009;2;137
009011;Szilasliget, Szondi utca;47.575273;19.266059;009011;;CS009012;2;-45
009012;Szilasliget, Szondi utca;47.575382;19.265687;009012;;CS009012;2;135
009013;Szilasliget, Kemping;47.578226;19.261133;;;;2;103
009014;EGIS-telep (Szentjakab H);47.592911;19.284773;009014;;CS009014;2;-61
009015;EGIS-telep (Szentjakab H);47.592495;19.285583;009015;;CS009014;2;119
009016;Godollo, Szokokut;47.599126;19.346731;;;;2;130
009017;Godollo, Szabadsag ter H;47.599243;19.346771;;;;2;-42
009018;Godollo, Szabadsag ter H;47.598050;19.349038;;;;2;40
009019;Godollo, Palotakert H;47.598734;19.355678;009019;;CS009019;2;115
009020;Godollo, Palotakert H;47.598679;19.356116;009020;;CS009019;2;-40
009021;Godollo H;47.592368;19.358154;;;;2;
009022;Mogyorod H;47.595494;19.271446;;;;2;-67
009025;Zichy Jeno utca;47.505192;19.057853;009025;;CS009026;1;-41
009026;Zichy Jeno utca;47.505246;19.057588;009026;;CS009026;1;133
009031;Margit hid, budai hidfo H;47.514834;19.035830;009031;;CSF00234;2;-159
009039;Csanady utca (Lehel ter M);47.515850;19.058891;009039;;CSF02612;1;111
009041;Haller utca / Soroksari ut;47.475024;19.069894;009041;;CSF01386;2;-26
009042;Haller utca / Soroksari ut;47.474816;19.070199;009042;;CSF01386;2;147
009047;Homoktovis utca;47.594582;19.113184;009047;;CS009047;2;15
009065;Solymar, Szarvas;47.596321;18.973591;009065;;CS009065;2;-89
009066;Solymar, Szarvas;47.596178;18.974455;009066;;CS009065;2;82
009067;Solymar, Auchan aruhaz;47.597798;18.963376;;;;2;
009072;AsiaCenter;47.548434;19.146925;;;;2;-113
009073;Fiume utca;47.435787;19.144171;;;;1;
009085;Budaors vasutallomas;47.448190;18.964863;009085;;CS009589;2;-90
009094;Petofi Sandor utca;47.402454;18.937006;009094;;CS009094;2;-43
009095;Pacsirta utca;47.404610;18.933941;009095;;CS009096;2;-44
009096;Pacsirta utca;47.404637;18.933742;009096;;CS009096;2;135
009097;Nora utca;47.407368;18.930795;009097;;CS009097;2;-21
009098;Nora utca;47.407278;18.930716;009098;;CS009097;2;159
009099;Katinka utca;47.410333;18.927025;009099;;CS009099;2;-44
009100;Katinka utca;47.410135;18.927145;009100;;CS009099;2;138
009101;Tatika utca;47.412900;18.930319;009101;;CS009101;2;52
009102;Tatika utca;47.412836;18.930001;009102;;CS009101;2;-124
009103;Valeria utca;47.414044;18.932675;009103;;CS009104;2;56
009104;Valeria utca;47.414107;18.932595;009104;;CS009104;2;-125
009105;Diosd, Buzavirag utca;47.416609;18.934233;;;;2;
009119;Szentendre H;47.659618;19.074522;009119;;CS009119;1;
009137;ujmajori utca;47.471715;19.220093;;;;2;-154
009138;Csillagmotor koz;47.471018;19.221893;;;;2;-59
009139;Dedics Ferenc utca;47.469113;19.226092;;;;2;124
009140;osrepulo utca;47.469552;19.227168;;;;2;-149
009145;Haller utca / Mester utca;47.475966;19.077802;009145;;CSF01395;2;-29
009146;Vagohid utca;47.473699;19.079631;009146;;CS009146;2;-33
009147;Vorosmarty utca;47.419900;19.120300;;;;2;50
009148;Szusza Ferenc Stadion;47.575797;19.083759;009148;;CSF00767;2;38
009153;obudai rendelointezet;47.545394;19.033784;009153;;CSF00584;1;
009154;Atletikai stadion;47.572575;19.114429;009154;;CS009154;2;14
009155;Atletikai stadion;47.572180;19.114150;009155;;CS009154;2;-167
009160;Keleti palyaudvar M;47.499449;19.083401;009160;;CSF01132;1;
009161;Keleti palyaudvar M;47.499431;19.084012;009161;;CSF01132;1;53
009162;Keleti palyaudvar M;47.499926;19.083216;009162;;CSF01132;1;
009163;Keleti palyaudvar M;47.499926;19.083587;009163;;CSF01132;1;-92
009166;Magdolna utca;47.492810;19.087539;009166;;CS009702;2;
009170;Pomaz, Dozsa Gyorgy utca;47.645570;19.027226;009170;;CS009170;1;-24
009171;Pomaz, Dozsa Gyorgy utca;47.645554;19.027001;009171;;CS009170;1;156
009174;Szell Kalman ter M;47.507655;19.024868;009174;;CS073099;1;-88
009176;Kossuth Lajos ter M;47.505921;19.048549;009176;;CSF00970;1;-99
009178;Bajza utca;47.514897;19.068025;009178;;CS009178;2;
009179;Petofi hid, budai hidfo;47.476465;19.058180;009179;;CSF02225;1;-121
009192;Kacsoh Pongrac utca;47.396486;19.208733;009192;;CS009193;2;172
009193;Kacsoh Pongrac utca;47.396873;19.208748;009193;;CS009193;2;-21
009194;Gyal, Ady Endre utca;47.389907;19.217972;009194;;CS009195;2;130
009195;Gyal, Ady Endre utca;47.390177;19.217708;009195;;CS009195;2;-45
009196;Szechenyi Istvan utca;47.381846;19.230727;;;;2;-39
009197;Bocskai Istvan utca;47.383397;19.228295;009197;;CSF04649;2;-45
009198;Dobo Katica utca;47.386832;19.222956;;;;2;-45
009199;Matyas kiraly utca;47.394694;19.210516;009199;;CS009200;2;133
009200;Matyas kiraly utca;47.394883;19.210398;009200;;CS009200;2;-38
009201;Tulipan utca;47.392296;19.214271;009201;;CS009202;2;132
009202;Tulipan utca;47.392314;19.214417;009202;;CS009202;2;-42
009203;Gyal, Deak Ferenc utca;47.385265;19.235533;;;;2;133
009204;arpad utca;47.388079;19.231106;;;;2;135
009205;Dobo Katica utca;47.389747;19.228502;;;;2;131
009206;Tancsics Mihaly utca;47.392091;19.224894;;;;2;131
009207;Kossuth Lajos utca;47.391701;19.221210;;;;2;42
009208;Pestszentlorinc, Szarvas csarda ter;47.441357;19.185110;009208;;CSF03711;1;
009220;Moricz Zsigmond korter M;47.477499;19.048349;009220;;CS022814;1;
009225;Noszlopy utca;47.471959;19.148362;009225;;CS009225;2;-52
009230;Deak Ferenc ter M;47.497701;19.053353;009230;;CS038717;1;-103
009234;Pestszentimre vasutallomas (Nemes utca);47.404493;19.187068;009234;;CSF03665;2;47
009238;Szent Korona utca;47.525692;19.169817;009238;;CSF03357;2;-34
009239;Csomori ut;47.528249;19.167313;;;;2;-34
009240;Sasvar utca, korlatozott forg.mh.;47.518294;19.180639;009240;;CS009240;2;143
009241;Margit utca;47.515079;19.185207;;;;2;60
009243;Also hatarut;47.416223;19.116187;009243;;CS008958;2;-153
009289;Gergely utca;47.468734;19.154524;009289;;CS009289;2;-53
009290;Kozvagohid H;47.466702;19.076032;009290;;CSF01527;2;
009292;Szigetszentmiklos, varoshaza;47.348591;19.044709;009292;;CS009292;1;-39
009295;Serfozo utca;47.539095;19.045373;009295;;CS009295;2;97
009301;Gardonyi Geza utca;47.405396;18.947745;;;;2;-128
009309;Deak Ferenc ter M;47.497404;19.055755;009309;;CS038717;2;-55
009310;Mupa - Nemzeti Szinhaz H;47.470275;19.074189;009310;;CS008240;1;-26
009311;BILK, bekotout;47.378957;19.129170;;;;2;-128
009312;MNB;47.376865;19.124280;009312;;CS009312;2;-42
009314;BILK, DF epulet;47.375197;19.120908;;;;2;47
009315;MNB;47.376667;19.124426;009315;;CS009312;2;124
009321;Keleti palyaudvar M;47.499926;19.084198;009321;;CSF01132;1;
009322;ors vezer tere M+H (Kerepesi ut);47.503306;19.137868;009322;;CS003106;2;86
009325;Kozvagohid H, tarolo;47.467520;19.076073;009325;;CSF01527;2;
009337;Orbanhegyi dulo;47.386327;19.110228;009337;;CS009338;2;-154
009338;Orbanhegyi dulo;47.386390;19.110480;009338;;CS009338;2;27
009339;Szent Istvan utca H;47.391083;19.114168;009339;;CS008962;2;-153
009349;Budaorsi repuloter;47.447079;18.986730;009349;;CS009350;2;-90
009350;Budaorsi repuloter;47.447127;18.985808;009350;;CS009350;2;58
009351;Koerberek;47.446339;18.998545;009351;;CS009351;2;-83
009352;Koerberek;47.446231;18.998784;009352;;CS009351;2;86
009353;Tippan utca;47.447968;19.000851;009353;;CS009353;2;-104
009354;Tippan utca;47.447788;19.000374;009354;;CS009353;2;75
009355;Regi vam (Kanai ut);47.446377;19.003968;009355;;CS009431;2;-83
009356;Regi vam (Kanai ut);47.446278;19.004075;009356;;CS009431;2;96
009358;Millenniumtelep H;47.379620;19.104287;;;;2;
009359;Boraros ter H;47.479755;19.066473;009359;;CS009739;2;
009365;Zsil utca;47.482787;19.063024;009365;;CSF01346;2;136
009369;Csepel, Horgasztanya;47.388390;19.103502;009369;;CS009369;1;
009372;Pestszentlorinc, Beke ter;47.429102;19.218511;009372;;CS008951;2;
009373;Hunyadvar utca;47.508234;19.192106;;;;2;-20
009375;Szilas-patak;47.529748;19.186427;009375;;CSF03351;2;54
009376;ujpalota, Nyirpalota ut;47.547035;19.141981;009376;;CSF03166;1;
009377;Jokai Mor utca (Rendorseg);47.510368;19.190492;009377;;CSF03393;2;157
009379;Jozsef utca;47.532065;19.155820;009379;;CSF02994;2;-136
009381;Rozsa utca;47.515812;19.155721;009381;;CSF03283;2;56
009382;Javorfa utca;47.526052;19.177918;009382;;CS009382;2;-122
009383;Janos utca;47.523533;19.172315;009383;;CS009383;2;-124
009392;Csillaghegy H;47.586451;19.045477;009392;;CS009392;2;
009412;Karolina ut;47.473540;19.034432;009412;;CS009412;2;106
009413;Ezredes utca;47.510057;19.021771;009413;;CSF00304;2;-36
009415;Sarfu utca;47.550060;19.138067;009415;;CS009415;2;-50
009420;Honvedkorhaz;47.531588;19.070912;009420;;CS009420;1;-135
009421;Ezred utca;47.606004;19.097598;009421;;CS009422;2;32
009422;Ezred utca;47.606849;19.098223;009422;;CS009422;2;-147
009425;Csonka Janos ter;47.470555;19.045271;009425;;CS009425;2;13
009426;Zuglo vasutallomas;47.511855;19.099631;009426;;CS009426;1;38
009427;Kelenfoldi autobuszgarazs;47.473243;19.029590;009427;;CSF02220;2;-101
009429;Keseruviztelep (Bobpalya);47.454806;19.007542;009429;;CS009429;2;-172
009430;Keseruviztelep (Bobpalya);47.453880;19.007516;009430;;CS009429;2;8
009431;Regi vam;47.446818;19.006063;009431;;CS009431;2;7
009438;Budakeszi, Honfoglalas setany;47.517899;18.924110;;;;2;31
009439;Zichy Peter utca;47.515575;18.922359;009439;;CS009440;1;18
009440;Zichy Peter utca;47.516162;18.922560;009440;;CS009440;2;-158
009441;Temeto utca;47.514938;18.921820;;;;2;-156
009442;Gimnazium;47.512067;18.928677;009442;;CS009442;2;-80
009443;Gimnazium;47.512056;18.927509;009443;;CS009442;2;101
009445;Tatarka utca;47.434041;19.021173;009445;;CS009445;2;-16
009446;Botond utca;47.403953;18.995789;;;;2;-123
009447;Matyas kiraly utca;47.404446;18.991589;009447;;CS009447;2;
009448;Gorgey utca;47.406802;18.991613;;;;2;-18
009449;Torok utca;47.411614;18.989898;009449;;CS062516;2;-23
009451;Gyuszu utca;47.417266;19.022400;;;;2;-131
009452;Hur utca;47.416159;19.020426;;;;2;-124
009453;Deveny utca;47.415224;19.022189;;;;2;42
009454;Wesselenyi utca;47.415917;19.026059;;;;2;108
009455;Ostor utca;47.416665;19.029941;;;;2;17
009456;Romai utca;47.417930;19.017589;009456;;CS009456;2;-37
009457;Romai utca;47.417175;19.018319;009457;;CS009456;2;139
009458;Huseg utca;47.421203;19.013519;009458;;CS009458;2;-35
009459;Huseg utca;47.420529;19.014023;009459;;CS009458;2;147
009460;Komaromi ut;47.424593;19.010866;009460;;CS009460;2;-24
009461;Komaromi ut;47.423955;19.011131;009461;;CS009460;2;152
009462;Tanito utca;47.435306;19.008724;009462;;CS009462;2;-58
009463;Tanito utca;47.435297;19.009784;009463;;CS009462;2;20
009465;Plebania utca;47.429726;19.032323;009465;;CS009465;2;-13
009466;Plebania utca;47.429690;19.032217;009466;;CS009465;2;167
009467;Galamb utca;47.432765;19.028517;009467;;CS009467;2;-44
009468;Galamb utca;47.432711;19.028438;009468;;CS009467;2;126
009469;Alkotmany utca;47.433430;19.025932;009469;;CS009469;2;-58
009470;Alkotmany utca;47.433385;19.025919;009470;;CS009469;2;118
009471;Szechenyi utca;47.418185;19.032578;009471;;CS009473;2;24
009472;Promontor utca;47.418094;19.027012;;;;2;-104
009473;Szechenyi utca;47.418464;19.032657;009473;;CS009473;2;-151
009474;Komlo utca;47.421339;19.035137;009474;;CSF04410;2;-162
009475;Mehesz utca;47.438577;19.034667;;;;2;155
009478;Szent Lorinc-telep (tervezett);47.432106;19.172930;009478;;CSF03620;2;
009479;Szent Lorinc-telep (tervezett);47.432106;19.173155;009479;;CSF03620;2;
009480;Margo Tivadar utca;47.433270;19.177559;009480;;CS009480;2;64
009481;Kerekgyarto utca;47.521397;19.105645;009481;;CS009481;2;-65
009482;Kucorgo ter;47.469074;19.295974;009482;;CS008948;2;-89
009483;Rakoscsaba vasutallomas;47.491124;19.281625;009483;;CSF03442;2;-123
009484;Tura utca;47.489200;19.276800;009484;;CS009484;2;-117
009485;Rakoscsaba-ujtelep vasutallomas;47.488181;19.273358;009485;;CS009485;2;-110
009486;II. utca;47.486369;19.265893;;;;2;-102
009487;Rakosliget vasutallomas;47.486328;19.259099;009487;;CSF03459;2;-81
009491;Fustifecske utca;47.478911;19.236966;009491;;CS009491;2;-68
009492;Fustifecske utca;47.478775;19.237297;009492;;CS009491;1;98
009493;Uszoda;47.479663;19.232974;009493;;CS009493;2;-75
009494;ujlak utca, lakotelep;47.482307;19.233674;009494;;CS009494;1;18
009495;Rakospatak utca;47.531725;19.100875;009495;;CS009495;2;-156
009498;Cserto utca;47.511107;19.146099;;;;2;-138
009499;Cserto utca;47.511591;19.147375;009499;;CSF02777;2;45
009500;Korvasut sor;47.513666;19.151030;009500;;CS009501;2;54
009501;Korvasut sor;47.514609;19.152837;009501;;CS009501;2;-127
009503;Kovacsi Kalman ter;47.573171;19.121120;009503;;CSF03018;2;32
009504;Kovacsi Kalman ter;47.573431;19.121200;009504;;CSF03018;2;-150
009508;Orlo utca;47.518283;19.007506;009508;;CS009508;2;-124
009509;Orlo utca;47.518121;19.007400;009509;;CS009508;2;45
009510;Pasareti ut;47.516231;19.003989;009510;;CSF00285;2;39
009511;Pasareti ut;47.516393;19.003896;009511;;CSF00285;2;-134
009512;Endrodi Sandor utca;47.521361;19.012550;009512;;CS009512;2;-121
009513;Bimbo ut;47.519354;19.008979;;;;2;-93
009514;Bimbo ut;47.519966;19.010572;;;;2;42
009515;Rakospalota-ujpest vasutallomas;47.566407;19.111631;009515;;CS009515;1;-159
009516;Rakospalota-ujpest vasutallomas;47.566227;19.111710;009516;;CS009515;1;14
009520;Csorsz utca;47.490170;19.023466;009520;;CSF02417;2;-82
009521;Csorsz utca;47.490044;19.023665;009521;;CSF02417;2;93
009522;Siraly utca;47.490555;19.018489;009522;;CS009522;2;-83
009524;Albertfalva vasutallomas;47.441923;19.032186;009524;;CS009524;2;-35
009534;XIII. utca / Dozsa Gyorgy ut;47.411121;18.993728;009534;;CSF04475;2;138
009536;Kaposztasmegyer, Mogyorodi-patak;47.598751;19.121328;009536;;CS009536;2;
009537;Marcius 15. ter;47.491791;19.052171;009537;;CS062518;1;63
009538;Irany utca;47.540514;19.109719;;;;2;-36
009539;Boglar utca;47.594753;19.060954;009539;;CSF00653;2;97
009540;Szilagyi Erzsebet fasor;47.515250;19.002105;;;;2;-130
009541;Ady Endre ut;47.436400;19.034932;009541;;CS009541;2;-83
009543;513. utca;47.484389;19.230204;;;;2;92
009544;Robogo utca;47.487305;19.270329;;;;2;-114
009545;Csepel;47.421156;19.065770;009545;;CS007177;2;
009546;Memento Park;47.425687;19.001282;009546;;CSF04394;2;143
009548;Tatarka utca;47.433933;19.021080;009548;;CS009445;2;170
009549;Madardomb koz;47.478138;19.241221;009549;;CS009549;2;-74
009550;Madardomb koz;47.478048;19.241168;009550;;CS009549;2;105
009551;Margo Tivadar utca;47.433199;19.176737;009551;;CS009480;2;-107
009554;obuda, Bogdani ut;47.550032;19.041214;009554;;CS003118;1;-81
009555;Szilagyi utca;47.570553;19.112593;009555;;CS008289;1;-64
009557;Vecsey Karoly utca;47.572023;19.096037;009557;;CS009557;2;35
009558;Szent Janos Korhaz;47.509973;19.009982;009558;;CSF00159;2;-90
009563;Meszko utca;47.579237;19.034843;009563;;CS056162;2;51
009564;Meszko utca;47.579129;19.034311;009564;;CS056162;2;-124
009566;Soroksar, Auchan aruhaz;47.417204;19.158231;;;;1;50
009568;Sosmocsar ut;47.414781;19.134154;;;;2;-37
009569;Thokoly ut;47.442019;19.180948;009569;;CSF03707;2;122
009570;ujbuda-kozpont M;47.474129;19.047135;009570;;CSF01999;2;-78
009572;Bagaria utca;47.590242;19.083130;009572;;CS009573;2;-140
009573;Bagaria utca;47.590307;19.083674;009573;;CS009573;1;46
009574;Ungvari utca;47.587511;19.082244;009574;;CS009574;2;3
009575;Ungvari utca;47.587265;19.082038;009575;;CS009574;2;-177
009576;Rev utca;47.584810;19.081824;;;;2;-177
009577;Savoya Park;47.436554;19.039692;009577;;CS009578;2;
009578;Savoya Park;47.436634;19.039254;009578;;CS009578;2;
009580;Szarvas csarda ter;47.441150;19.185043;009580;;CSF03711;2;
009581;Gabor aron utca;47.515016;19.002132;;;;2;47
009582;Janos ter;47.442019;19.102563;009582;;CS009582;2;-39
009584;Bekasmegyer H;47.597461;19.055516;009584;;CS008940;2;22
009585;Nagyteteny, Erdelyi utca;47.388125;18.970427;009585;;CSF04504;2;
009586;Baross utca;47.436417;19.098832;009586;;CSF04126;2;144
009587;Gogol utca;47.520520;19.056740;009587;;CS009587;2;110
009588;Kuruclesi ut;47.518021;18.985213;009588;;CSF00172;2;-73
009589;Budaors vasutallomas;47.448226;18.964849;009589;;CS009589;2;-90
009592;Kobanya-Kispest P+R;47.464163;19.146225;009592;;CS009592;2;-34
009594;Kobanya-Kispest, FUTaR segedpont kelet;47.462752;19.150150;009594;;CS009592;;
009620;Angeli utca / Nagytetenyi ut;47.390930;18.981735;009620;;CSF04499;2;14
009624;Maglod, Auchan aruhaz;47.460690;19.335221;;;;2;
009625;Szigetcsep utca;47.464432;19.312705;;;;2;-90
009627;Boraros ter;47.479182;19.066559;009627;;CS009627;2;
009630;Budakalasz, Auchan aruhaz;47.611518;19.062395;009630;;CS009630;2;-162
009631;Gergely utca 80.;47.474086;19.144346;;;;2;-49
009632;Nagykorosi ut / Hatar ut;47.456381;19.114232;009632;;CS008377;2;
009633;Budakalasz, Auchan aruhaz;47.611513;19.062334;009633;;CS009630;2;-113
009634;Cinkotai autobuszgarazs (kapu);47.498634;19.237646;009634;;CSF03286;;
009636;Kelenfoldi autobuszgarazs (kapu);47.473264;19.029397;009636;;CSF02220;;
009637;obudai autobuszgarazs (Pomazi kapu);47.568220;19.027770;009637;;CS008360;;
009638;Kobanyai garazs (Salgotarjani kapu);47.491008;19.114239;009638;;CS074021;;
009639;Kelenfold kocsiszin (Csoka kapu);47.470139;19.027137;;;;;
009640;Szepilona kocsiszin (kapu);47.517648;18.993977;009640;;CSF00168;;
009642;Szava kocsiszin (1. kapu);47.466429;19.122671;009642;;CS044126;;
009644;Hungaria kocsiszin (kapu);47.491373;19.104840;;;;;
009645;Zuglo kocsiszin (kapu);47.518909;19.112583;;;;;
009646;Angyalfold kocsiszin (Pozsonyi kapu);47.551014;19.091714;009646;;CSF00693;;
009647;Baross kocsiszin (Magdolna kapu);47.491893;19.087286;;;;;
009652;Szechenyi ut;47.545688;19.112314;009652;;CSF03082;2;-138
009657;Rakospalota, Kossuth utca;47.568778;19.126297;009657;;CSF03026;2;
009659;Melyfuro utca;47.577590;19.129699;;;;2;129
009662;Kobanyai garazs;47.490865;19.113615;009662;;CS074021;2;
009667;ujbuda-kozpont M;47.474036;19.048229;009667;;CSF01999;1;
009675;Clark adam ter;47.497665;19.041541;009675;;CS049785;1;-18
009676;Clark adam ter;47.497359;19.041594;009676;;CS049785;1;157
009684;Varoskozpont, Posta;47.478975;19.256190;;;;2;-156
009685;Akacvirag utca;47.477439;19.255335;;;;2;-163
009690;Torokvesz ut;47.529498;19.004443;;;;2;
009691;Florian ter;47.539949;19.042052;009691;;CSF00611;2;122
009692;Szentlelek ter H;47.539949;19.046781;009692;;CSF00621;2;
009693;Kolosy ter;47.527710;19.036894;009693;;CSF00137;2;-69
009698;Galantai utca;47.498452;19.014888;009698;;CS009698;2;-64
009699;Galantai utca;47.498227;19.015475;009699;;CS009698;2;104
009702;Magdolna utca;47.492972;19.087181;009702;;CS009702;2;
009703;Kozvagohid H;47.467700;19.076537;009703;;CSF01527;2;-34
009704;Jaszivany utca;47.495436;19.275393;;;;2;-50
009705;Diadal utca (Tura utca);47.494425;19.272296;;;;2;-120
009706;XVII. utca;47.491840;19.260036;009706;;CSF03469;2;-169
009707;Aranykut utca;47.493794;19.278001;009707;;CSF03443;2;129
009708;Rakoscsaba vasutallomas;47.491582;19.281932;009708;;CSF03442;2;131
009709;ujbuda-kozpont M;47.474413;19.045456;009709;;CSF01999;1;
009715;Zodony utca;47.430372;19.099913;;;;2;
009716;Pesterzsebet vasutallomas;47.433495;19.095940;009716;;CSF04121;2;-95
009717;Zamardi utca;47.434221;19.093288;;;;2;-108
009718;Vizisport utca;47.434524;19.091361;009718;;CS009718;2;12
009719;Csepeli atjaro;47.436365;19.093238;009719;;CSF04147;2;82
009722;Deak Ferenc ter M, tarolo;47.497680;19.054831;009722;;CS038717;2;
009728;Zsigmond utca;47.464014;19.318341;009728;;CS009729;2;74
009729;Zsigmond utca;47.464016;19.317704;009729;;CS009729;2;-105
009730;Szell Kalman ter M;47.506881;19.023461;009730;;CS073099;1;-48
009739;Boraros ter H;47.481428;19.065027;009739;;CS009739;2;-37
009743;Siraly utca;47.490376;19.019617;009743;;CS009522;2;96
009747;Ezred utca, lakotelep;47.609052;19.101471;;;;2;-56
009748;Europa Center;47.605210;19.103768;;;;2;32
009753;Blaha Lujza ter M (Nepszinhaz utca);47.495999;19.071283;009753;;CSF01116;2;
009763;Zsofialiget H;47.548044;19.263894;009763;;CS009763;2;45
009764;Zsofialiget H;47.547898;19.263369;009764;;CS009763;2;-114
009774;Jaszberenyi ut / Maglodi ut;47.489904;19.148847;009774;;CSF01615;2;
011313;Szent Laszlo utca;47.405915;18.999166;011313;;CSF04470;2;145
011316;Atletikai stadion;47.572374;19.113875;011316;;CS009154;2;
011317;Atletikai stadion;47.572527;19.114088;011317;;CS009154;2;
011319;Moricz Zsigmond korter M;47.477553;19.048747;011319;;CS022814;2;
011320;Buza utca;47.553437;19.040325;011320;;CS011320;1;12
011321;Buza utca;47.551890;19.039647;011321;;CS011320;1;-168
011322;obuda, Bogdani ut;47.549924;19.041360;011322;;CS003118;1;96
011327;Budaorsi Ipari es Technologiai Park;47.463310;18.894407;;;;2;
011439;Ferencvaros kocsiszin (kapu);47.470692;19.091421;;;;;
011493;Baross kocsiszin (Baross kapu);47.489618;19.090158;;;;;
011495;Kek Golyo utca;47.497904;19.020038;011495;;CSF02411;2;-101
011572;Mester utca / Ferenc korut;47.481383;19.069206;011572;;CSF01380;2;
011576;Angyalfold kocsiszin (Erzsebet kapu);47.552482;19.093914;011576;;CSF00821;;
011715;509. utca;47.484963;19.225442;011715;;CS011715;2;-79
011722;Rakoskeresztur, varoskozpont;47.479742;19.255012;011722;;CS011726;1;
011723;Rakoskeresztur, varoskozpont;47.479597;19.255489;011723;;CS011726;1;108
011724;Rakoskeresztur, varoskozpont;47.479416;19.256086;011724;;CS011726;1;
011725;Rakoskeresztur, varoskozpont;47.479805;19.255265;011725;;CS011726;1;-71
011726;Rakoskeresztur, varoskozpont;47.479898;19.254714;011726;;CS011726;2;-71
011762;ujpest-Varoskapu M;47.559059;19.078791;011762;;CS005815;2;
011763;ujpest-Varoskapu M (Vaci ut);47.558650;19.077394;011763;;CS005815;1;-7
011765;Boraros ter H;47.479187;19.067812;011765;;CS009739;2;
011768;Rakoscsaba-ujtelep, Toalmas utca;47.499281;19.286785;011768;;CSF03584;2;
011773;Kereszturi ut;47.484645;19.227750;;;;2;-78
016725;Rozsaliget;47.466582;19.158453;;;;2;-47
016727;ujbuda-kozpont M;47.474692;19.046770;016727;;CSF01999;2;13
016729;Naphegy ter;47.493526;19.032755;016729;;CS016729;1;
016764;Kalotaszeg utca;47.458825;19.041134;016764;;CS049186;2;11
019313;Rakoskert vasutallomas;47.457347;19.295124;;;;2;
019314;Rakoskert sugarut;47.459829;19.299340;019314;;CS019314;2;159
019316;Rakoscsaba vasutallomas;47.491005;19.282657;019316;;CSF03442;1;
022005;Tolgy utca;47.416370;19.205427;;;;1;-135
022006;Szenes Ivan ter;47.479990;19.095703;;;;2;118
022814;Moricz Zsigmond korter M;47.478201;19.044582;022814;;CS022814;1;
030328;Soroksar, Hosok tere H;47.399367;19.115423;030328;;CSF04542;1;
031884;Nagykovacsi, Tisza Istvan ter;47.575762;18.879484;;;;2;
036236;Szigetszentmiklos H;47.345461;19.048256;;;;2;28
036678;Szell Kalman ter M;47.506710;19.025240;036678;;CS073099;1;38
037379;Batthyany ter M+H;47.506259;19.038432;037379;;CSF00065;1;1
037747;Lakihegy, Cseresznyes utca;47.377314;19.007284;037747;;CS037747;2;37
037748;Lakihegy, Cseresznyes utca;47.376792;19.006384;037748;;CS037747;2;-137
038670;Kobanya-Kispest M;47.462398;19.148450;038670;;CS009592;1;
038671;Kobanya-Kispest M;47.462344;19.148344;038671;;CS009592;1;
038673;Kobanya-Kispest M;47.462694;19.149021;038673;;CS009592;1;
038674;Kobanya-Kispest M;47.462974;19.147562;038674;;CS009592;1;
038675;Kobanya-Kispest M;47.463191;19.146979;038675;;CS009592;1;-73
038678;Kobanya-Kispest M;47.463037;19.147748;038678;;CS009592;1;
038680;Kobanya-Kispest M;47.462929;19.148252;038680;;CS009592;1;
038681;Kobanya-Kispest M;47.462796;19.148790;038681;;CS009592;1;
038682;Kobanya-Kispest M;47.462922;19.149121;038682;;CS009592;1;
038683;Kobanya-Kispest M;47.463090;19.148478;038683;;CS009592;1;
038686;Kobanya-Kispest M;47.463460;19.147245;038686;;CS009592;1;
038687;Kobanya-Kispest M;47.463307;19.147921;038687;;CS009592;1;
038688;Kobanya-Kispest M;47.463226;19.148266;038688;;CS009592;1;
038691;Kobanya-Kispest M;47.462930;19.149519;038691;;CS009592;1;
038717;Deak Ferenc ter M;47.499109;19.053848;038717;;CS038717;1;80
038791;Kobanya also vasutallomas;47.483103;19.128249;038791;;CSF01800;2;
040525;Hentes utca;47.462276;19.084570;040525;;CS040526;1;136
040526;Hentes utca;47.462600;19.084411;040526;;CS040526;1;-30
040591;FESTO;47.564944;19.030939;;;;2;
040608;Zsivora park;47.509134;19.148798;;;;1;-31
040609;Szent Imre ter H;47.431830;19.067888;040609;;CS041095;2;4
040612;Banyato utca;47.466331;19.165078;040612;;CS040612;2;53
040762;Hatar ut M;47.465339;19.127838;040762;;CS040762;2;-24
040763;Hatar ut M;47.465069;19.128275;040763;;CS040762;2;107
040789;Kerekgyarto utca;47.521082;19.106375;040789;;CS009481;2;112
041092;Csepeli Korhaz;47.424622;19.058674;;;;2;-46
041093;Duna utca;47.428215;19.059125;;;;2;34
041094;Szinesfem utca;47.430535;19.064600;;;;2;93
041095;Szent Imre ter H;47.432046;19.067318;041095;;CS041095;2;86
042794;Palota ut, gyorslift;47.495308;19.038527;042794;;CS042794;2;
042797;Banyato utca;47.465434;19.162927;042797;;CS040612;2;-121
042933;Nepliget M;47.475823;19.100289;042933;;CS086859;1;
042934;Soroksar, BILK;47.378261;19.121263;;;;2;
043154;Del-pesti autobuszgarazs (kapu);47.426902;19.160697;043154;;CS043154;;
043176;Kobanya-Kispest M;47.461923;19.149332;043176;;CS009592;2;-152
043191;Bosnyak ter;47.519323;19.112730;043191;;CSF02826;1;
043192;Kisvarda utca;47.471603;19.282680;043192;;CS043192;2;-79
043193;Kisvarda utca;47.471403;19.283449;043193;;CS043192;2;94
043333;Szent Orban ter;47.498557;19.008132;043333;;CSF02397;2;-178
043341;Gyorgy utca;47.530988;19.171569;;;;2;-35
043342;Regi Foti ut;47.559192;19.122482;;;;2;-49
043343;Csorsz utca;47.490670;19.024632;043343;;CSF02417;1;-8
043481;Kaposztasmegyer, Aquaworld;47.599656;19.112712;;;;2;
043548;Csaba vezer ter;47.487265;19.286568;043548;;CSF03485;2;-27
043554;Enying utca;47.475377;19.297911;043554;;CS043554;2;-37
043555;Sport ter;47.477046;19.295809;043555;;CS043555;2;-26
043556;Res utca;47.480211;19.291870;043556;;CS043556;2;-38
043571;Dukat utca;47.408304;18.991015;;;;2;-5
043746;Kobanyai garazs (Pongracz kapu);47.492390;19.119545;;;;;
043955;obudai autobuszgarazs (Torokko kapu);47.566890;19.031889;;;;;
044029;Fenyogyongye;47.540338;19.006599;044029;;CS064210;2;
044032;Szigetszentmiklos, varoshaza;47.347971;19.044934;044032;;CS009292;1;150
044033;Jozsef Attila utca;47.338022;19.039575;044033;;CS044034;2;
044034;Jozsef Attila utca;47.338085;19.038292;044034;;CS044034;2;
044053;Rakospalota-ujpest vasutallomas;47.564371;19.110476;044053;;CS009515;2;
044076;Deli utca;47.423173;19.061198;;;;1;-45
044115;Pottyos utca M;47.468484;19.116055;044115;;CSF01465;2;-171
044125;Cinkota H;47.520032;19.220580;044125;;CS044125;2;-59
044126;Szava kocsiszin;47.466789;19.123016;044126;;CS044126;2;-56
044127;Szava kocsiszin;47.466420;19.123095;044127;;CS044126;2;117
044128;Valeria ter;47.465660;19.115414;044128;;CS044128;2;-162
044129;Napfeny utca;47.458582;19.114450;044129;;CS044129;2;-165
044130;Madzsar Jozsef utca / Punkosdfurdo utca;47.595572;19.054226;044130;;CS044130;2;18
044131;Madzsar Jozsef utca / Punkosdfurdo utca;47.595527;19.054026;044131;;CS044130;2;-151
044135;ives ut;47.593086;19.107022;044135;;CS044135;1;-25
044178;Szent Gellert-templom;47.469358;19.025906;044178;;CS044178;2;56
044180;Nyugati palyaudvar M;47.511337;19.056712;044180;;CSF01023;2;
044192;Bekasmegyer H;47.597856;19.053867;044192;;CS008940;2;-151
044301;Orczy ter (Baross kocsiszin);47.489477;19.090708;044301;;CSF01217;2;
044369;Rackeve;47.175605;18.941796;;;;2;
044371;Budakeszi, Tesco-Parkcenter;47.500252;18.916838;;;;2;
044372;Solymar, Kerekhegy;47.581449;18.926420;;;;2;
044375;Budaliget, Geza fejedelem utja;47.567607;18.936286;044375;;CSF00387;2;47
044380;Dozsa Gyorgy ter;47.507157;18.922210;044380;;CSF04790;2;-112
044381;Dozsa Gyorgy ter;47.507044;18.922323;044381;;CSF04790;2;67
044382;Budakeszi, lakotelep;47.503867;18.921003;044382;;CS044382;2;-178
044383;Budakeszi, lakotelep;47.503621;18.921157;044383;;CS044382;2;6
044388;Soroksar, Auchan aruhaz;47.419788;19.155599;;;;1;-7
044511;Solymar, PEMu;47.597409;18.928240;044511;;CS044511;2;
044513;Kelenfold kocsiszin (Thalloczy kapu);47.469509;19.025572;;;;;
044555;Deak Ferenc ter M;47.498178;19.054720;044555;;CS038717;;
044557;ujpest, arpad ut hajoallomas;47.562378;19.078142;044557;;CS044557;2;179
044571;Solymar, kozseghaza;47.592190;18.937112;044571;;CSF04702;2;-75
044572;Dozsa Gyorgy utca;47.592861;18.931495;044572;;CS044572;2;-88
044573;Dozsa Gyorgy utca;47.592672;18.932563;044573;;CS044572;2;101
044576;ujpest, arpad ut;47.561987;19.077768;044576;;CS044557;1;
044581;Meder utca;47.549847;19.067320;;;;1;78
044583;Nepfurdo utca (arpad hid);47.537643;19.058218;044583;;CS044583;1;-3
044589;Jaszai Mari ter (Margit hid);47.515158;19.046902;;;;1;9
044590;Batthyany ter M+H;47.504671;19.039868;044590;;CSF00065;2;23
044591;Petofi ter (Erzsebet hid);47.493608;19.049265;044591;;CS044591;1;-53
044592;Szent Gellert ter M (Szabadsag hid);47.484677;19.053431;044592;;CS044592;2;-21
044593;Boraros ter H (Petofi hid);47.479999;19.065172;044593;;CS009739;1;-56
044594;Egyetemvaros - A38;47.476761;19.063168;;;;1;3
044595;Haller utca;47.474665;19.068660;044595;;CSF01386;1;-35
044596;Kopaszi-gat - BudaPart;47.467720;19.064717;;;;2;
044602;Solymar, temeto;47.594946;18.940975;044602;;CS044603;2;57
044603;Solymar, temeto;47.595027;18.940164;044603;;CS044603;2;-103
044637;Gorogkatolikus templom;47.423175;19.078064;044637;;CS044638;2;4
044638;Gorogkatolikus templom;47.424083;19.077958;044638;;CS044638;2;-176
045755;Maros utca;47.418142;19.137857;;;;2;47
045883;Fot, Auchan aruhaz;47.580948;19.161548;;;;1;43
047670;Budakeszi temeto;47.513591;18.924624;;;;2;-45
047875;Orczy ter (Baross kocsiszin);47.489544;19.090388;047875;;CSF01217;2;
047985;Szoloskert utca;47.502123;18.916488;047985;;CS061378;2;-134
048277;Kobanya also vasutallomas;47.483123;19.127809;048277;;CSF01800;2;
048303;Diosdi ut;47.433919;18.924953;;;;2;-49
048305;Liliom utca;47.430955;18.928300;;;;2;-30
048471;Pasareti ter;47.523620;18.994064;048471;;CSF00276;2;
048474;Illatos ut MARKER;47.455716;19.086199;;;;2;
048505;Szent Istvan Bazilika;47.500678;19.054680;048505;;CS048505;1;-180
048506;Szent Istvan Bazilika;47.500273;19.055025;048506;;CS048505;1;0
048519;Rakospalota, Kossuth utca;47.568509;19.125605;048519;;CSF03026;2;
048536;Lehel ter M;47.517759;19.060445;048536;;CSF02612;2;
049170;Szent Istvan utca H;47.391218;19.114446;049170;;CS008962;2;6
049171;Zseller dulo;47.390703;19.119134;049171;;CS049171;2;-29
049172;Gyali-patak;47.394752;19.116782;049172;;CS049172;2;35
049174;Soroksar, Kertvarosi korut;47.413026;19.136152;;;;2;130
049177;Karpat utca;47.527236;19.059915;;;;1;
049178;Revesz utca;47.526850;19.061482;;;;1;-69
049180;Dagaly furdo;47.539100;19.061698;049180;;CSF02565;1;-136
049182;uszodaru utca;47.546064;19.068993;049182;;CS049182;2;15
049183;uszodaru utca;47.545902;19.068780;049183;;CS049182;2;-162
049185;Szantofold utca;47.572636;19.139461;049185;;CS049185;2;35
049186;Kalotaszeg utca;47.459214;19.040857;049186;;CS049186;1;-165
049784;Clark adam ter;47.499059;19.040119;049784;;CS049785;2;166
049785;Clark adam ter;47.499248;19.040199;049785;;CS049785;2;-14
049787;Nagyteteny, Erdelyi utca;47.387982;18.970812;049787;;CSF04504;2;
049903;Mansfeld Peter park;47.517075;19.033226;;;;2;3
049914;Sorgyar;47.491859;19.144405;049914;;CSF01622;2;
049962;Miko utca;47.498400;19.028455;049962;;CSF00088;1;121
050003;Cinkota H;47.520006;19.220341;050003;;CS044125;2;118
050129;Csapo utca;47.440861;19.161363;050129;;CSF03728;2;
050173;Lincoln ut;47.416015;19.243500;;;;2;-133
050174;Lorinci utca;47.416612;19.241461;;;;2;-45
050175;Pestszentlorinc, sorompo;47.421906;19.238604;050175;;CS050176;2;117
050176;Pestszentlorinc, sorompo;47.422104;19.238366;050176;;CS050176;2;-64
050177;Ganztelep, Mednyanszky utca;47.423198;19.234845;050177;;CSF03795;2;113
050178;Pestszentlorinc, Beke ter;47.429490;19.218430;050178;;CS008951;2;27
050180;Duna utca;47.433016;19.220602;050180;;CS050182;2;17
050181;Ferihegy vasutallomas;47.436818;19.222550;050181;;CS007927;2;-160
050182;Duna utca;47.433475;19.220630;050182;;CS050182;2;-153
050183;Pestszentlorinc, Beke ter;47.429673;19.218245;050183;;CS008951;2;-153
050184;Lorinci piac;47.443130;19.184332;;;;2;28
050185;Vecses, Market Central Ferihegy;47.416726;19.251851;050185;;CS050186;2;
050186;Vecses, Market Central Ferihegy;47.416753;19.251865;050186;;CS050186;2;
050187;Vecses, Fo ut;47.418379;19.249419;;;;2;116
050189;Ganztelep, Mednyanszky utca;47.423855;19.234688;050189;;CSF03795;1;
050274;Batthyany-orokmecses;47.506345;19.050990;;;;2;-8
050279;Lomnici utca;47.436478;19.019514;050279;;CS050279;2;83
056123;Borsmenta utca;47.572558;19.010575;;;;2;-133
056124;Citronella utca;47.572397;19.005076;;;;1;
056161;Csillaghegy H [1];47.584652;19.043137;056161;;CS008404;2;
056162;Meszko utca [2];47.579552;19.034245;056162;;CS056162;2;-59
056163;Meszko utca [2];47.579444;19.034258;056163;;CS056162;2;124
056164;Csikovar utca [3];47.583059;19.031412;056164;;CS056164;2;-164
056165;oregbukk utca [4];47.581359;19.029605;056165;;CS056165;2;-47
056166;oregbukk utca [4];47.581260;19.029591;056166;;CS056165;2;127
056167;Lepence utca [5];47.583661;19.027517;056167;;CS056167;2;-162
056168;Cserszomorce utca [6];47.582501;19.026135;056168;;CS056168;2;-48
056169;Cserszomorce utca [6];47.582492;19.026068;056169;;CS056168;2;121
056170;Muzsla utca [7];47.581043;19.024075;056170;;CS056171;2;-149
056171;Muzsla utca [7];47.581061;19.024247;056171;;CS056171;2;27
056172;oarany utca [8];47.579523;19.023557;056172;;CS056188;2;27
056173;Macsonya utca [9];47.583777;19.023595;056173;;CS056173;2;-49
056174;Macsonya utca [9];47.583768;19.023528;056174;;CS056173;2;121
056175;Saroglya utca [10];47.584973;19.021161;056175;;CS056175;2;-54
056176;Saroglya utca [10];47.584928;19.021135;056176;;CS056175;2;125
056177;Kopor utca [11];47.582715;19.019514;;;;2;19
056178;Csillaghegy H [1];47.584661;19.043150;056178;;CS008404;2;
056184;Csikovar utca [3];47.583050;19.031452;056184;;CS056164;2;11
056185;Lepence utca [5];47.583643;19.027570;056185;;CS056167;2;16
056186;Muzsla utca [7];47.581061;19.024021;056186;;CS056171;2;-141
056187;Muzsla utca [7];47.581034;19.024287;056187;;CS056171;2;27
056188;oarany utca [8];47.579541;19.023504;056188;;CS056188;2;-143
056189;Ipacsfa utca;47.429484;19.168656;056189;;CSF03623;2;123
056215;Kelenfold vasutallomas;47.464515;19.019618;056215;;CS056215;1;
056216;Kelenfold vasutallomas;47.464255;19.020587;056216;;CS056215;1;
056217;Bikas park;47.464881;19.032345;056217;;CSLM4BP1;1;-109
056218;Bikas park;47.465022;19.033386;056218;;CSLM4BP1;1;72
056219;ujbuda-kozpont;47.472860;19.045954;056219;;CSLM4UK1;1;-174
056220;ujbuda-kozpont;47.473559;19.046266;056220;;CSLM4UK1;1;18
056221;Moricz Zsigmond korter;47.476629;19.047227;056221;;CSLM4MKF;1;-167
056222;Moricz Zsigmond korter;47.477310;19.047645;056222;;CSLM4MKF;1;14
056223;Szent Gellert ter;47.482635;19.054014;056223;;CSLM4SG1;1;-130
056224;Szent Gellert ter;47.483039;19.055036;056224;;CSLM4SG1;1;50
056225;Fovam ter;47.485792;19.057571;056225;;CSLM4FT1;1;-154
056226;Fovam ter;47.486169;19.058009;056226;;CSLM4FT1;1;27
056227;Kalvin ter;47.488903;19.061022;056227;;CSF01289;1;-128
056228;Kalvin ter;47.489245;19.061938;056228;;CSF01289;1;56
056229;Rakoczi ter;47.492725;19.071361;056229;;CS056230;1;-103
056230;Rakoczi ter;47.492760;19.072489;056230;;CS056230;1;77
056231;II. Janos Pal papa ter;47.495593;19.077229;056231;;CS056232;1;-157
056232;II. Janos Pal papa ter;47.496078;19.077707;056232;;CS056232;1;25
056233;Keleti palyaudvar;47.500116;19.080722;056233;;CSLMXKPB;1;
056234;Keleti palyaudvar;47.500485;19.081704;056234;;CSLMXKPB;1;
056379;Metro DBR jarmutelep (kapu);47.461404;19.025005;;;;;
056426;Karoly korut (Astoria M);47.495524;19.060201;056426;;CSF01108;2;
061136;Rakosszeg park;47.534261;19.103428;;;;2;25
061188;Kelenfold vasutallomas M;47.464050;19.018746;061188;;CS061278;1;
061222;Kelenfold vasutallomas M;47.464436;19.018826;061222;;CS061278;2;-173
061223;Neszmelyi ut;47.460801;19.013867;061223;;CS061223;1;-56
061224;Peterhegyi ut / Neszmelyi ut;47.458590;19.018802;061224;;CS061224;1;-56
061225;Hajtany sor;47.455342;19.024398;061225;;CSF01948;2;15
061226;Peterhegyi ut (Menyecske utca);47.461369;19.019000;061226;;CS061226;2;-7
061227;Peterhegyi ut (Menyecske utca);47.461090;19.018947;061227;;CS061226;2;170
061231;Pajkos utca;47.456866;19.030526;061231;;CS061232;1;98
061232;Pajkos utca;47.457144;19.029107;061232;;CS061232;1;-81
061233;Antalhaza;47.436223;19.007092;061233;;CS061234;2;17
061234;Antalhaza;47.436726;19.007132;061234;;CS061234;2;-158
061236;Bibic utca;47.412031;19.005194;061236;;CS061236;1;-42
061237;Bibic utca;47.411968;19.005075;061237;;CS061236;1;135
061238;Nyeki Imre Uszoda;47.450954;19.036666;061238;;CS078064;2;94
061271;Igmandi utca;47.457248;19.019994;061271;;CS061271;2;178
061272;Bolygo utca;47.451139;19.016244;061272;;CS061272;2;-160
061273;Bolygo utca;47.450752;19.016218;061273;;CS061272;2;16
061274;Kelenfold vasutallomas M;47.464128;19.018557;061274;;CS061278;2;
061275;Kelenfold vasutallomas M;47.464436;19.018613;061275;;CS061278;2;
061277;Kelenfold vasutallomas M;47.464670;19.018534;061277;;CS061278;1;114
061278;Kelenfold vasutallomas M;47.464742;19.017778;061278;;CS061278;1;-55
061280;Kelenfold vasutallomas M;47.464454;19.018269;061280;;CS061278;1;3
061286;Szabina ut;47.437241;19.013747;061286;;CS061286;2;3
061349;Keleti palyaudvar M;47.499647;19.083521;061349;;CSF01132;1;
061350;Keleti palyaudvar M;47.499809;19.083229;061350;;CSF01132;1;
061351;Keleti palyaudvar M;47.499809;19.083839;061351;;CSF01132;1;
061352;Keleti palyaudvar M;47.499809;19.084145;061352;;CSF01132;1;
061367;Puskas Ferenc Stadion M;47.499880;19.107530;061367;;CS008132;1;
061368;Munkas utca;47.499918;19.079088;061368;;CSF01172;1;87
061378;Szoloskert utca;47.502285;18.916726;061378;;CS061378;2;12
061379;Maglod, Auchan aruhaz;47.459205;19.332057;;;;2;
062511;Than Karoly utca;47.461081;19.025231;062511;;CS062511;2;-155
062512;Borszeki utca;47.458535;19.023574;062512;;CS062512;2;-155
062513;Jegmadar utca;47.430762;19.005851;062513;;CS062513;2;-36
062514;Jegmadar utca;47.430753;19.005665;062514;;CS062513;2;138
062515;Torok utca;47.412738;18.989274;062515;;CS062516;2;-118
062516;Torok utca;47.412918;18.988757;062516;;CS062516;2;146
062517;Rozsak tere;47.501817;19.075598;;;;1;45
062518;Marcius 15. ter;47.491872;19.051760;062518;;CS062518;1;-101
062519;Gazdagreti ut;47.462811;19.005122;062519;;CS062519;2;151
062521;Corvin-negyed M;47.486357;19.068850;062521;;CSF01190;1;-55
062522;XIII. utca / Dozsa Gyorgy ut;47.411130;18.993901;062522;;CSF04475;2;-41
062566;Boraros ter H;47.479452;19.067442;062566;;CS009739;2;
062604;Nyar utca;47.435738;18.918427;062604;;CS062604;1;-28
062607;Neumann Janos utca;47.469872;19.062941;;;;1;
062608;Magyar tudosok korutja;47.471498;19.063724;062608;;CS062622;1;75
062620;Egyetemvaros - A38 hajoallomas;47.473576;19.063446;062620;;CS062621;2;167
062621;Egyetemvaros - A38 hajoallomas;47.473730;19.063592;062621;;CS062621;1;-12
062622;Magyar tudosok korutja;47.471741;19.063989;062622;;CS062622;2;170
062726;Regi vam;47.445631;19.005613;062726;;CS009431;2;-170
062747;Keleti palyaudvar M;47.501356;19.084357;062747;;CSF01132;2;
062756;Dagaly furdo;47.537691;19.062840;062756;;CSF02565;2;106
062757;Karikas Frigyes utca;47.536767;19.067269;062757;;CSF02571;2;60
062815;Szent Laszlo utca;47.404869;18.997873;062815;;CSF04470;2;-122
062861;Dagaly furdo;47.537898;19.062441;062861;;CSF02565;2;-72
062942;Peterfy Sandor utca;47.501636;19.077828;;;;1;-30
063310;Gyongyosi utca M;47.547975;19.073178;063310;;CSF02535;1;
063399;Hulladekhasznosito Mu;47.584164;19.131198;063399;;CS063399;2;29
064067;Massanyi uti lakopark;47.359933;19.028822;064067;;CS064074;2;132
064074;Massanyi uti lakopark;47.360751;19.027856;064074;;CS064074;2;-44
064075;Szigetszentmiklos, Szabadsag utca;47.358296;19.031921;;;;2;-25
064085;Kolcsey Ferenc utca;47.355247;19.034874;064085;;CS064085;2;140
064087;Lehel utca;47.352882;19.038541;064087;;CS064087;2;129
064088;Varosi Konyvtar;47.344795;19.042274;;;;2;-144
064089;Miklos Plaza;47.341638;19.040925;;;;2;169
064090;Nap utca (ovoda);47.349561;19.025742;064090;;CS064106;2;-139
064091;Vaci Mihaly utca (Jozsef Attila-telep H);47.338471;19.035910;064091;;CS064185;2;1
064092;Jokai utca;47.341260;19.036028;064092;;CS064092;2;-1
064093;Akacfa korut;47.344228;19.033301;064093;;CS064093;2;-64
064103;Tamasi aron utca;47.345045;19.028206;064103;;CS064103;2;-86
064104;Miklos ter;47.346933;19.023282;064104;;CS064181;2;-44
064105;Szebeni utca;47.350638;19.016265;;;;2;-45
064106;Nap utca (ovoda);47.349750;19.026100;064106;;CS064106;2;33
064107;osz utca;47.352907;19.024828;064107;;CS064107;2;-39
064108;Ady Endre utca;47.355057;19.025886;064108;;CS064170;2;41
064170;Ady Endre utca;47.355848;19.027090;064170;;CS064170;2;-135
064175;osz utca;47.352394;19.025291;064175;;CS064107;2;127
064181;Miklos ter;47.347356;19.023163;064181;;CS064181;2;-140
064182;Tamasi aron utca;47.345010;19.028841;064182;;CS064103;2;80
064183;Akacfa korut;47.343832;19.034294;064183;;CS064093;2;110
064184;Jokai utca;47.341080;19.035843;064184;;CS064092;2;-177
064185;Vaci Mihaly utca (Jozsef Attila-telep H);47.338561;19.035764;064185;;CS064185;2;-178
064186;Kisfaludy utca;47.342349;19.045001;;;;2;29
064187;Lehel utca;47.352873;19.038739;064187;;CS064087;2;-50
064188;Kolcsey Ferenc utca;47.354959;19.035403;064188;;CS064085;2;-43
064208;Szepvolgyi koz;47.541136;19.002003;064208;;CS064208;2;-68
064209;Szepvolgyi koz;47.541109;19.001644;064209;;CS064208;2;107
064210;Fenyogyongye;47.540427;19.005563;064210;;CS064210;2;-65
064212;Selyemakac utca;47.543149;18.996382;064212;;CS064212;2;-54
064214;Selyemakac utca;47.543050;18.996382;064214;;CS064212;2;101
064215;Szepvolgyi dulo;47.545881;18.992141;;;;2;
064239;Leshegy utca;47.376961;19.032246;064239;;CS064240;2;87
064240;Leshegy utca;47.377069;19.031955;064240;;CS064240;2;-87
064241;Leshegy Ipari Park;47.376044;19.042085;064241;;CS064241;2;139
064242;Leshegy Ipari Park;47.375594;19.041993;064242;;CS064241;2;47
064243;Temeto utca;47.356210;19.046946;064243;;CS064243;2;22
064244;Wesselenyi utca;47.351110;19.045357;064244;;CS064319;2;28
064245;Banki Donat utca;47.360366;19.047581;;;;2;-65
064246;Banyato ut;47.367670;19.048415;064246;;CS064246;2;4
064316;Banyato ut;47.366761;19.048071;064316;;CS064246;2;-175
064318;Temeto utca;47.355383;19.045900;064318;;CS064243;2;-126
064319;Wesselenyi utca;47.352063;19.045357;064319;;CS064319;2;158
066375;Nepliget tarolo;47.473683;19.099279;066375;;CS086859;2;
066435;Nepliget M;47.476679;19.096177;;;;2;
066451;Infopark;47.469171;19.059717;066451;;CS066451;1;-84
066452;Infopark;47.469072;19.060500;066452;;CS066451;1;97
066453;Budafoki ut / Dombovari ut;47.469808;19.053655;066453;;CS066453;1;-75
066454;Budafoki ut / Dombovari ut;47.469646;19.054384;066454;;CS066453;1;102
066455;Hauszmann Alajos utca / Szeremi ut;47.466536;19.049570;066455;;CS066456;1;-167
066456;Hauszmann Alajos utca / Szeremi ut;47.467013;19.049756;066456;;CS066456;1;10
066457;Hengermalom ut / Szeremi ut;47.462066;19.048336;066457;;CS066458;1;-158
066458;Hengermalom ut / Szeremi ut;47.462551;19.048509;066458;;CS066458;1;11
066459;Etele ut / Fehervari ut;47.462400;19.042632;066459;;CSF02009;1;
066460;Etele ut / Fehervari ut;47.462353;19.042594;066460;;CSF02009;1;
066477;Hunyadi Janos ut tarolo;47.431139;19.042741;;;;2;
066697;Res utca;47.480157;19.291817;066697;;CS043556;2;-9
066698;Sport ter;47.476785;19.295994;066698;;CS043555;2;135
066699;Enying utca;47.475188;19.298029;066699;;CS043554;2;137
066700;Szarazhegy koz;47.473213;19.300607;;;;2;136
066711;Rakoscsaba-ujtelep vasutallomas;47.486549;19.271041;;;;2;
066712;Szabadsag sugarut / Peceli ut;47.482938;19.273347;066712;;CSF03476;2;158
066713;Szabadsag sugarut / Peceli ut;47.482631;19.274063;066713;;CSF03476;2;-33
066714;Nyitany utca;47.480756;19.275992;066714;;CS066715;2;132
066715;Nyitany utca;47.481053;19.275794;066715;;CS066715;2;-32
066716;ontozo utca;47.478737;19.278238;066716;;CS066717;2;139
066717;ontozo utca;47.478899;19.278173;066717;;CS066717;2;-34
066718;Pestvideki utca;47.476592;19.280644;066718;;CS066719;2;140
066719;Pestvideki utca;47.476781;19.280538;066719;;CS066719;2;-30
066720;Derkovits ter;47.474869;19.283024;;;;2;64
066722;Nyeremeny utca;47.474462;19.284123;;;;2;
066755;Hunyadi Janos utca MOL kut;47.448868;19.049211;;;;2;
066756;Budaors Repuloteri ut MOL kut;47.447541;18.976254;;;;2;
066826;Napfeny utca;47.458509;19.114530;066826;;CS044129;2;17
066828;arpad hid M;47.532965;19.065654;066828;;CSF02601;2;114
066856;Pagony utca;47.495120;19.002813;066856;;CS066856;2;102
066969;Zimonyi utca;47.471748;19.299950;;;;2;
067001;Borszeki utca MOL kut;47.456592;19.024172;;;;2;
067002;Kelenfoldi VB palyaudvar;47.463329;19.022895;;;;2;
067266;Kossuth Lajos ter M;47.505615;19.044633;067266;;CSF00970;2;-5
067333;Golgota ter MOL kut;47.486170;19.093320;067333;;CSF01227;2;
067334;Hos u. MOL kut;47.496093;19.108578;;;;2;
067335;Pesti ut MOL kut;47.484366;19.227629;;;;2;
067368;Nagykorosi ut MOL kut;47.442630;19.132926;;;;2;
067563;Csepel, Szent Istvan ut MOL kut;47.419083;19.074285;;;;2;
067585;Hatar ut M;47.464609;19.127404;067585;;CS040762;1;
067592;Batthyany ter M+H;47.506568;19.038422;067592;;CSF00065;1;
067622;Csepel, Csillagtelep;47.409955;19.060354;067622;;CSF04277;1;
069089;Margit hid, budai hidfo H;47.515149;19.037569;069089;;CSF00234;1;-98
069090;Margit hid, budai hidfo H;47.515122;19.037158;069090;;CSF00234;1;-9
069091;Margit hid, budai hidfo H;47.514717;19.035936;069091;;CSF00234;1;-163
069092;Bem Jozsef ter;47.512082;19.039455;069092;;CS069092;1;4
069093;Bem Jozsef ter;47.511776;19.039296;069093;;CS069092;1;-172
069195;Leshegy Ipari Park;47.375244;19.043158;069195;;CS064241;2;-32
069403;Jahn Ferenc Korhaz;47.423214;19.132014;069403;;CSF04082;2;135
069661;ujpest-Kozpont M;47.560386;19.090552;069661;;CSF00911;2;
070997;Szell Kalman ter M;47.507743;19.023301;070997;;CS073099;1;
071135;Budaors Metro MOL kut;47.460514;18.893215;;;;2;
071154;Bekasmegyer H;47.597865;19.054120;071154;;CS008940;2;28
071262;Infopark;47.468515;19.058556;071262;;CS066451;2;-82
071659;Nyugati palyaudvar M;47.509726;19.054854;071659;;CSF01023;1;-161
072046;Muflon utca;47.570868;18.931415;072046;;CS072046;2;-34
072047;Muflon utca;47.570670;18.931469;072047;;CS072046;2;136
072912;ag utca;47.495662;19.029480;072912;;CSF00097;1;
072934;Rudas Gyogyfurdo;47.490125;19.047173;072934;;CS072934;1;-37
072935;Rudas Gyogyfurdo;47.489824;19.047383;072935;;CS072934;1;142
072938;CS/ Kossuth Lajos utca MOL;47.438084;19.071291;;;;2;
073099;Szell Kalman ter M;47.507795;19.022886;073099;;CS073099;1;
073152;Maros utca;47.505533;19.021637;073152;;CSF02335;1;44
073308;Solymar vasutallomas;47.595972;18.950089;073308;;CS073309;2;-71
073309;Solymar vasutallomas;47.595999;18.950103;073309;;CS073309;2;-71
073426;Muvelodesi Haz;47.428553;18.913151;073426;;CS073427;2;18
073427;Muvelodesi Haz;47.428553;18.913005;073427;;CS073427;2;-155
073471;Nyar utca;47.435378;18.918467;073471;;CS062604;1;150
073472;Haranglab;47.432107;18.913911;073472;;CSF04757;2;-48
073473;Munkacsy Mihaly utca (hosi emlekmu);47.431390;18.916591;073473;;CS073473;2;-140
074021;Kobanyai garazs;47.491018;19.114222;074021;;CS074021;2;
074495;Torokbalint Sportkozpont;47.440514;18.897223;074495;;CS074495;;
074501;Krisztina ter;47.496699;19.031667;074501;;CS084856;1;-102
074909;Auchan Liget;47.541514;19.246517;074909;;CS074909;1;-35
074935;Nagy Lajos kiraly utja / Czobor utca;47.522809;19.101979;074935;;CSF02868;2;-171
075119;Nyar utca;47.435468;18.918639;075119;;CS062604;1;
075220;obudai autobuszgarazs;47.567996;19.027538;075220;;CS008360;1;127
075654;Koves ut / Szentlorinci ut;47.416082;19.143211;075654;;CS075655;2;50
075655;Koves ut / Szentlorinci ut;47.416265;19.143244;075655;;CS075655;2;-131
075744;Sasadi ut;47.465540;19.015876;075744;;CSF01926;1;45
076394;Aranyvolgy vasutallomas;47.574337;19.016474;076394;;CS076394;1;-60
076395;Aranyvolgy vasutallomas;47.573789;19.017660;076395;;CS076394;1;119
076396;obuda vasutallomas (Aranyhegyi ut);47.570439;19.028424;076396;;CS076397;1;112
076397;obuda vasutallomas (Aranyhegyi ut);47.570755;19.027745;076397;;CS076397;1;-68
076398;Aranyvolgy utca 14.;47.571859;19.022431;076398;;CS076399;1;99
076399;Aranyvolgy utca 14.;47.572096;19.021853;076399;;CS076399;1;-55
077969;Andor utcai autobuszgarazs (kapu);47.457689;19.027290;;;;;
078064;Nyeki Imre Uszoda;47.451074;19.037384;078064;;CS078064;2;-82
081565;Szell Kalman ter M;47.507691;19.024350;081565;;CS073099;1;
081950;Varoshaz ter;47.426290;19.040020;081950;;CSF04405;1;68
081954;Kacsa utca;47.510535;19.039269;;;;1;1
082040;Fogaz telephely;47.490143;19.114886;;;;2;
082200;Becsi ut / Vorosvari ut;47.546762;19.029194;082200;;CSF00571;1;-11
082617;Sasadi ut;47.466639;19.016264;082617;;CSF01926;1;-140
082623;Budatetenyi sorompo;47.403245;19.009361;082623;;CSF04458;1;-64
083329;Bartok Bela ut 208.;47.417518;18.985378;083329;;CS083329;1;-26
083330;Bartok Bela ut 208.;47.416969;18.985684;083330;;CS083329;2;145
083331;Savoyai Jeno ter (Plebania utca);47.428921;19.035811;083331;;CS007930;1;167
083468;Albert Florian ut;47.472525;19.095415;083468;;CSF01501;1;-65
083601;Rudas Gyogyfurdo;47.490065;19.047301;083601;;CS072934;;
083777;Budafoki Szomszedok Piaca;47.427599;19.039509;;;;2;-97
083948;arpad fejedelem utja, MOL-toltoallomas;47.536055;19.046334;;;;;
084804;Andor utca / Tetenyi ut;47.456614;19.033921;084804;;CS090915;1;-77
084856;Krisztina ter;47.497016;19.031933;084856;;CS084856;2;-60
085723;Lehel ter M (Lehel utca);47.517100;19.062144;085723;;CSF02612;;
086200;Mikulasgyar;47.512833;19.079207;;;;2;-108
086671;Budaors M1-M7 MOL kut;47.451598;18.958601;;;;;
086859;Nepliget M;47.476544;19.100752;086859;;CS086859;2;-3
086880;Nepliget M;47.476220;19.100592;086880;;CS086859;2;163
086885;Nagyvarad ter M;47.478347;19.090724;086885;;CSF01246;1;119
087209;Mupa - Nemzeti Szinhaz H;47.469349;19.069918;;;;1;-9
087373;Soroksar, IKEA aruhaz;47.412767;19.160899;;;;1;
087615;Soroksari ut MOL-toltoallomas;47.458141;19.084471;;;;;
087616;Mezokovesd ut MOL toltoallomas;47.439699;19.044018;;;;;
088017;Napfeny utca, MOL toltoallomas;47.458175;19.114884;088017;;CS044129;;
088453;Rackeve kocsiszin (kapu);47.174793;18.941817;;;;2;
088670;Repulomuzeum;47.426467;19.262001;;;;1;179
088969;Kobanya-Kispest M;47.462797;19.148349;088969;;CS009592;1;
089411;Liszt Ferenc Airport 2;47.432755;19.261231;089411;;CSF04599;1;
090362;arpad uzlethaz;47.560015;19.098308;090362;;CSF00833;1;
090366;Forgach utca M;47.540115;19.069760;090366;;CS090366;2;-163
090368;arpad uzlethaz;47.560509;19.099409;090368;;CSF00833;1;
090370;Lehel ter M;47.518899;19.060989;090370;;CSF02612;1;15
090371;ujpest-Kozpont M;47.560618;19.088325;090371;;CSF00911;1;-80
090372;Forgach utca M;47.537759;19.069122;090372;;CS090366;1;15
090373;ujpest-Kozpont M;47.560444;19.088297;090373;;CSF00911;2;88
090380;ujpest-Varoskapu M;47.560701;19.083020;090380;;CS090380;1;-80
090381;ujpest-Varoskapu M;47.560504;19.083298;090381;;CS090380;1;76
090388;arpad hid M;47.533618;19.066849;090388;;CSF02601;1;-159
090482;otvenhatosok tere;47.507804;19.086977;090482;;CS090482;2;-132
090914;Andor utca;47.456255;19.039783;090914;;CSF02012;1;-163
090915;Andor utca / Tetenyi ut;47.457018;19.033547;090915;;CS090915;1;-1
091338;Benczur utca;47.512406;19.079601;091338;;CSF01048;1;-35
091470;Hadak utja;47.462918;19.026187;;;;1;7
091541;Szurkebegy utca;47.475328;19.239142;091541;;CSF03556;;-46
CS003106;ors vezer tere;47.502948;19.136406;CS003106;1;;;
CS003118;obuda, Bogdani ut;47.550445;19.042050;CS003118;1;;;
CS005815;ujpest-Varoskapu;47.558374;19.077744;CS005815;1;;;
CS007177;Csepel;47.421275;19.065940;CS007177;1;;;
CS007877;Birosag;47.519510;18.978054;CS007877;1;;;
CS007914;526. sor;47.479290;19.211400;CS007914;1;;;
CS007924;ultetveny utca;47.396852;19.175304;CS007924;1;;;
CS007927;Ferihegy vasutallomas;47.437431;19.222815;CS007927;1;;;
CS007930;Savoyai Jeno ter;47.429589;19.037114;CS007930;1;;;
CS007967;Kelenfold vasutallomas;47.464974;19.022642;CS007967;1;;;
CS007976;Huvosvolgy;47.542987;18.964363;CS007976;1;;;
CS007995;Jokai Mor utca;47.410306;19.020527;CS007995;1;;;
CS007997;Budateteny vasutallomas (Campona);47.405747;19.014016;CS007997;1;;;
CS008041;Tas vezer utca;47.478786;19.040606;CS008041;1;;;
CS008050;Lipto utca;47.486055;19.007051;CS008050;1;;;
CS008087;Feny utcai piac;47.508398;19.023716;CS008087;1;;;
CS008102;Rozsavolgy felso;47.441072;19.022738;CS008102;1;;;
CS008109;Damjanich utca;47.402419;18.990920;CS008109;1;;;
CS008110;Barosstelep vasutallomas;47.399602;18.990872;CS008110;1;;;
CS008111;Barackos ut / Angeli utca;47.401595;18.973421;CS008111;1;;;
CS008113;Szilvafa utca;47.405192;18.982619;CS008113;1;;;
CS008115;Szebeni utca;47.430258;19.016478;CS008115;1;;;
CS008125;Zoldike utca;47.430971;19.012591;CS008125;1;;;
CS008127;Hir utca;47.432905;19.011463;CS008127;1;;;
CS008132;Puskas Ferenc Stadion;47.500335;19.106533;CS008132;1;;;
CS008240;Mupa - Nemzeti Szinhaz;47.471037;19.073347;CS008240;1;;;
CS008260;Nagybanyai ut;47.528397;18.996243;CS008260;1;;;
CS008264;Mupa - Nemzeti Szinhaz;47.469554;19.070097;CS008264;1;;;
CS008269;Delej utca;47.484572;19.096382;CS008269;1;;;
CS008284;ocean-arok utca;47.590204;19.101106;CS008284;1;;;
CS008289;Szilagyi utca;47.570627;19.112164;CS008289;1;;;
CS008317;Bartok Bela utca;47.433050;18.919211;CS008317;1;;;
CS008319;Raktarvaros;47.441557;18.938442;CS008319;1;;;
CS008324;Tukorhegy;47.436296;18.927038;CS008324;1;;;
CS008326;Ady Endre utca;47.434987;18.906573;CS008326;1;;;
CS008330;Hatar utca;47.445104;18.894168;CS008330;1;;;
CS008337;Noveny utca;47.402098;19.015532;CS008337;1;;;
CS008341;Templom ter;47.542083;19.130063;CS008341;1;;;
CS008360;obudai autobuszgarazs;47.568088;19.026773;CS008360;1;;;
CS008377;Nagykorosi ut / Hatar ut;47.455516;19.114163;CS008377;1;;;
CS008403;Kert sor;47.591251;19.045363;CS008403;1;;;
CS008404;Csillaghegy[1];47.584754;19.042546;CS008404;1;;;
CS008407;Forrasliget lakopark;47.581253;19.037682;CS008407;1;;;
CS008409;uromhegyi lejto;47.577654;19.032132;CS008409;1;;;
CS008410;Aranyhegyi lejto;47.572553;19.030214;CS008410;1;;;
CS008428;Budakalasz, Budai ut;47.616896;19.051651;CS008428;1;;;
CS008431;Budakalasz, Lenfono;47.621052;19.046018;CS008431;1;;;
CS008432;Szentistvantelep;47.627749;19.043623;CS008432;1;;;
CS008434;Pomaz;47.643245;19.030908;CS008434;1;;;
CS008436;Szentendre, Papirgyar;47.648364;19.069255;CS008436;1;;;
CS008438;Egyetem;47.652186;19.071534;CS008438;1;;;
CS008458;Tisza Istvan ter;47.516752;19.107744;CS008458;1;;;
CS008459;Uzsoki Utcai Korhaz;47.519732;19.103589;CS008459;1;;;
CS008559;Korompai utca;47.484856;19.012687;CS008559;1;;;
CS008587;Gyali ut;47.456421;19.110694;CS008587;1;;;
CS008589;Gyali ut;47.465410;19.103688;CS008589;1;;;
CS008598;Baross utca;47.459694;18.958597;CS008598;1;;;
CS008643;Szekesdulo;47.611142;19.104166;CS008643;1;;;
CS008645;Vizmuvek;47.599926;19.093050;CS008645;1;;;
CS008647;aruhazi bekotout;47.386516;19.022859;CS008647;1;;;
CS008649;Szekesdulo, ipartelep;47.614957;19.109026;CS008649;1;;;
CS008651;Auchan Sziget aruhaz;47.384278;19.025886;CS008651;1;;;
CS008685;Albertfalva kitero;47.452583;19.038670;CS008685;1;;;
CS008692;Felsocsatari koz;47.457338;19.176947;CS008692;1;;;
CS008702;Ferencvarosi rendelointezet;47.477051;19.075619;CS008702;1;;;
CS008708;Vizmuvek lakotelep;47.597772;19.091533;CS008708;1;;;
CS008737;Daniel ut;47.512872;18.994858;CS008737;1;;;
CS008846;Mehecske utca;47.448006;18.947883;CS008846;1;;;
CS008850;Mikszath Kalman utca;47.450982;19.177059;CS008850;1;;;
CS008904;Ketujfalu utca;47.419271;19.208835;CS008904;1;;;
CS008911;Homoktovis iskola;47.597036;19.116565;CS008911;1;;;
CS008919;Pongratz Gergely ter;47.509366;19.128851;CS008919;1;;;
CS008923;Kabai utca;47.495677;19.160425;CS008923;1;;;
CS008940;Bekasmegyer;47.597910;19.054765;CS008940;1;;;
CS008948;Kucorgo ter;47.469148;19.294970;CS008948;1;;;
CS008951;Pestszentlorinc, Beke ter;47.429373;19.218078;CS008951;1;;;
CS008954;Csillag utca;47.409389;19.119027;CS008954;1;;;
CS008955;Gombosszeg koz;47.412872;19.118436;CS008955;1;;;
CS008958;Also hatarut;47.416268;19.116293;CS008958;1;;;
CS008962;Szent Istvan utca;47.391533;19.114605;CS008962;1;;;
CS008965;Szent Laszlo utca;47.420960;19.126438;CS008965;1;;;
CS008966;Szentlorinci uti lakotelep;47.416914;19.130971;CS008966;1;;;
CS008971;Gyula vezer ut;47.409578;19.003907;CS008971;1;;;
CS009001;Kistarcsa;47.545543;19.259766;CS009001;1;;;
CS009002;Kerepes;47.551882;19.269702;CS009002;1;;;
CS009006;Szilasligeti elagazas;47.560483;19.283406;CS009006;1;;;
CS009008;Szilasliget, Posta;47.569716;19.272303;CS009008;1;;;
CS009009;Szilasliget, Wesselenyi utca;47.573036;19.269233;CS009009;1;;;
CS009012;Szilasliget, Szondi utca;47.575328;19.265873;CS009012;1;;;
CS009014;EGIS-telep (Szentjakab H);47.592703;19.285178;CS009014;1;;;
CS009019;Godollo, Palotakert;47.598706;19.355897;CS009019;1;;;
CS009026;Zichy Jeno utca;47.505219;19.057720;CS009026;1;;;
CS009047;Homoktovis utca;47.594290;19.113496;CS009047;1;;;
CS009065;Solymar, Szarvas;47.596249;18.974023;CS009065;1;;;
CS009094;Petofi Sandor utca;47.402441;18.937344;CS009094;1;;;
CS009096;Pacsirta utca;47.404623;18.933841;CS009096;1;;;
CS009097;Nora utca;47.407323;18.930756;CS009097;1;;;
CS009099;Katinka utca;47.410234;18.927085;CS009099;1;;;
CS009101;Tatika utca;47.412868;18.930160;CS009101;1;;;
CS009104;Valeria utca;47.414075;18.932635;CS009104;1;;;
CS009119;Szentendre kocsiszin (kapu);47.659186;19.073457;CS009119;1;;;
CS009146;Vagohid utca;47.473418;19.079949;CS009146;1;;;
CS009154;Atletikai stadion;47.572414;19.114135;CS009154;1;;;
CS009170;Pomaz, Dozsa Gyorgy utca;47.645562;19.027113;CS009170;1;;;
CS009178;Bajza utca;47.514719;19.068202;CS009178;1;;;
CS009193;Kacsoh Pongrac utca;47.396679;19.208740;CS009193;1;;;
CS009195;Gyal, Ady Endre utca;47.390042;19.217840;CS009195;1;;;
CS009200;Matyas kiraly utca;47.394788;19.210457;CS009200;1;;;
CS009202;Tulipan utca;47.392305;19.214344;CS009202;1;;;
CS009225;Noszlopy utca;47.471905;19.148362;CS009225;1;;;
CS009240;Sasvar utca, korlatozott forg.mh.;47.518227;19.180856;CS009240;1;;;
CS009289;Sibrik Miklos ut;47.467936;19.154133;CS009289;1;;;
CS009292;Szigetszentmiklos, varoshaza;47.348281;19.044822;CS009292;1;;;
CS009295;Serfozo utca;47.538711;19.046164;CS009295;1;;;
CS009312;MNB;47.376766;19.124353;CS009312;1;;;
CS009338;Orbanhegyi dulo;47.386358;19.110354;CS009338;1;;;
CS009350;Budaorsi repuloter;47.447104;18.986117;CS009350;1;;;
CS009351;Koerberek;47.445772;18.999238;CS009351;1;;;
CS009353;Tippan utca;47.447878;19.000612;CS009353;1;;;
CS009369;Csepel, Horgasztanya;47.388224;19.103502;CS009369;1;;;
CS009382;Javorfa utca;47.525581;19.176994;CS009382;1;;;
CS009383;Janos utca;47.523374;19.172059;CS009383;1;;;
CS009392;Csillaghegy;47.586122;19.045991;CS009392;1;;;
CS009412;Karolina ut;47.472801;19.033867;CS009412;1;;;
CS009415;Sarfu utca;47.549984;19.138094;CS009415;1;;;
CS009420;Honvedkorhaz;47.530388;19.070723;CS009420;1;;;
CS009422;Ezred utca;47.606426;19.097911;CS009422;1;;;
CS009425;Csonka Janos ter;47.470182;19.044990;CS009425;1;;;
CS009426;Zuglo vasutallomas;47.511302;19.098782;CS009426;1;;;
CS009429;Keseruviztelep (Bobpalya);47.454343;19.007529;CS009429;1;;;
CS009431;Regi vam (Kanai ut);47.446276;19.004930;CS009431;1;;;
CS009440;Zichy Peter utca;47.515868;18.922459;CS009440;1;;;
CS009442;Gimnazium;47.512061;18.928093;CS009442;1;;;
CS009445;Tatarka utca;47.433987;19.021127;CS009445;1;;;
CS009447;Matyas kiraly utca;47.404349;18.991002;CS009447;1;;;
CS009456;Romai utca;47.417552;19.017954;CS009456;1;;;
CS009458;Huseg utca;47.420866;19.013771;CS009458;1;;;
CS009460;Komaromi ut;47.424274;19.010998;CS009460;1;;;
CS009462;Tanito utca;47.435302;19.009254;CS009462;1;;;
CS009465;Plebania utca;47.429708;19.032270;CS009465;1;;;
CS009467;Galamb utca;47.432738;19.028477;CS009467;1;;;
CS009469;Alkotmany utca;47.433408;19.025925;CS009469;1;;;
CS009473;Szechenyi utca;47.418324;19.032618;CS009473;1;;;
CS009480;Margo Tivadar utca;47.433234;19.177148;CS009480;1;;;
CS009481;Kerekgyarto utca;47.521263;19.106029;CS009481;1;;;
CS009484;Tura utca;47.489190;19.276912;CS009484;1;;;
CS009485;Rakoscsaba-ujtelep vasutallomas;47.488159;19.273451;CS009485;1;;;
CS009491;Fustifecske utca;47.478843;19.237132;CS009491;1;;;
CS009493;Uszoda;47.479504;19.233431;CS009493;1;;;
CS009494;ujlak utca, lakotelep;47.482199;19.233535;CS009494;1;;;
CS009495;Rakospatak utca;47.531446;19.101041;CS009495;1;;;
CS009501;Korvasut sor;47.514137;19.151934;CS009501;1;;;
CS009508;Orlo utca;47.518202;19.007453;CS009508;1;;;
CS009512;Endrodi Sandor utca;47.521240;19.012390;CS009512;1;;;
CS009515;Rakospalota-ujpest vasutallomas;47.565361;19.111219;CS009515;1;;;
CS009522;Siraly utca;47.490002;19.018632;CS009522;1;;;
CS009524;Albertfalva vasutallomas;47.441822;19.033260;CS009524;1;;;
CS009536;Kaposztasmegyer, Mogyorodi-patak;47.598571;19.121429;CS009536;1;;;
CS009541;Ady Endre ut;47.436153;19.035741;CS009541;1;;;
CS009549;Madardomb koz;47.478093;19.241194;CS009549;1;;;
CS009557;Vecsey Karoly utca;47.571999;19.095942;CS009557;1;;;
CS009573;Bagaria utca;47.590274;19.083402;CS009573;1;;;
CS009574;Ungvari utca;47.587388;19.082141;CS009574;1;;;
CS009578;Savoya Park;47.436302;19.040597;CS009578;1;;;
CS009582;Janos ter;47.441744;19.102708;CS009582;1;;;
CS009587;Gogol utca;47.520336;19.057158;CS009587;1;;;
CS009589;Budaors vasutallomas;47.448208;18.964856;CS009589;1;;;
CS009592;Kobanya-Kispest;47.462851;19.148469;CS009592;1;;;
CS009627;Boraros ter;47.479180;19.066496;CS009627;1;;;
CS009630;Budakalasz, Auchan aruhaz;47.611515;19.062365;CS009630;1;;;
CS009698;Galantai utca;47.497791;19.014445;CS009698;1;;;
CS009702;Magdolna utca;47.492446;19.087836;CS009702;1;;;
CS009718;Vizisport utca;47.434261;19.091312;CS009718;1;;;
CS009729;Zsigmond utca;47.464015;19.318023;CS009729;1;;;
CS009739;Boraros ter;47.480104;19.066595;CS009739;1;;;
CS009763;Zsofialiget;47.547971;19.263631;CS009763;1;;;
CS011320;Buza utca;47.552664;19.039986;CS011320;1;;;
CS011715;509. utca;47.484887;19.225621;CS011715;1;;;
CS011726;Rakoskeresztur, varoskozpont;47.479692;19.255313;CS011726;1;;;
CS016729;Naphegy ter;47.493521;19.032629;CS016729;1;;;
CS019314;Rakoskert sugarut;47.459729;19.299916;CS019314;1;;;
CS022814;Moricz Zsigmond korter;47.477578;19.046886;CS022814;1;;;
CS037747;Lakihegy, Cseresznyes utca;47.377017;19.006909;CS037747;1;;;
CS038717;Deak Ferenc ter;47.497580;19.054904;CS038717;1;;;
CS040526;Hentes utca;47.462438;19.084491;CS040526;1;;;
CS040612;Banyato utca;47.465882;19.164002;CS040612;1;;;
CS040762;Hatar ut;47.464756;19.127011;CS040762;1;;;
CS041095;Szent Imre ter;47.431002;19.069724;CS041095;1;;;
CS042794;Palota ut, gyorslift;47.495240;19.038534;CS042794;1;;;
CS043154;Del-pesti autobuszgarazs;47.426598;19.161098;CS043154;1;;;
CS043192;Kisvarda utca;47.471503;19.283065;CS043192;1;;;
CS043554;Enying utca;47.475282;19.297970;CS043554;1;;;
CS043555;Sport ter;47.476915;19.295901;CS043555;1;;;
CS043556;Res utca;47.480184;19.291843;CS043556;1;;;
CS044034;Jozsef Attila utca;47.338054;19.038933;CS044034;1;;;
CS044125;Cinkota;47.520019;19.220461;CS044125;1;;;
CS044126;Szava kocsiszin;47.466546;19.122927;CS044126;1;;;
CS044128;Valeria ter;47.465351;19.115263;CS044128;1;;;
CS044129;Napfeny utca;47.458422;19.114621;CS044129;1;;;
CS044130;Madzsar Jozsef utca / Punkosdfurdo utca;47.595129;19.053415;CS044130;1;;;
CS044135;ives ut;47.592829;19.107149;CS044135;1;;;
CS044178;Szent Gellert-templom;47.468932;19.024668;CS044178;1;;;
CS044382;Budakeszi, lakotelep;47.503744;18.921080;CS044382;1;;;
CS044511;Solymar, PEMu;47.597313;18.927996;CS044511;1;;;
CS044557;ujpest, arpad ut hajoallomas;47.561900;19.078470;CS044557;1;;;
CS044572;Dozsa Gyorgy utca;47.592767;18.932032;CS044572;1;;;
CS044583;Nepfurdo utca / arpad hid;47.536586;19.059594;CS044583;1;;;
CS044591;Petofi ter;47.493415;19.049915;CS044591;1;;;
CS044592;Szent Gellert ter;47.483185;19.053324;CS044592;1;;;
CS044603;Solymar, temeto;47.594986;18.940570;CS044603;1;;;
CS044638;Gorogkatolikus templom;47.423629;19.078011;CS044638;1;;;
CS048505;Szent Istvan Bazilika;47.500476;19.054852;CS048505;1;;;
CS049171;Zseller dulo;47.389936;19.119736;CS049171;1;;;
CS049172;Gyali-patak;47.394725;19.116676;CS049172;1;;;
CS049182;uszodaru utca;47.545983;19.068887;CS049182;1;;;
CS049185;Szantofold utca;47.572440;19.139145;CS049185;1;;;
CS049186;Kalotaszeg utca;47.459011;19.040993;CS049186;1;;;
CS049785;Clark adam ter;47.498173;19.040593;CS049785;1;;;
CS050176;Pestszentlorinc, sorompo;47.422005;19.238485;CS050176;1;;;
CS050182;Duna utca;47.433245;19.220619;CS050182;1;;;
CS050186;Vecses, Market Central Ferihegy;47.416739;19.251858;CS050186;1;;;
CS050279;Lomnici utca;47.436456;19.019819;CS050279;1;;;
CS056162;Meszko utca;47.579341;19.034414;CS056162;1;;;
CS056164;Csikovar utca [3];47.583055;19.031432;CS056164;1;;;
CS056165;oregbukk utca [4];47.581310;19.029598;CS056165;1;;;
CS056167;Lepence utca [5];47.583652;19.027543;CS056167;1;;;
CS056168;Cserszomorce utca [6];47.582497;19.026101;CS056168;1;;;
CS056171;Muzsla utca [7];47.581050;19.024157;CS056171;1;;;
CS056173;Macsonya utca [9];47.583773;19.023562;CS056173;1;;;
CS056175;Saroglya utca [10];47.584950;19.021148;CS056175;1;;;
CS056188;oarany utca [8];47.579532;19.023530;CS056188;1;;;
CS056215;Kelenfold vasutallomas;47.464234;19.019777;CS056215;1;;;
CS056230;Rakoczi ter;47.492722;19.071817;CS056230;1;;;
CS056232;II. Janos Pal papa ter;47.495300;19.077244;CS056232;1;;;
CS061223;Neszmelyi ut;47.460464;19.014478;CS061223;1;;;
CS061224;Peterhegyi ut / Neszmelyi ut;47.458428;19.019081;CS061224;1;;;
CS061226;Peterhegyi ut (Menyecske utca);47.460619;19.018150;CS061226;1;;;
CS061232;Pajkos utca;47.457005;19.029816;CS061232;1;;;
CS061234;Antalhaza;47.436474;19.007112;CS061234;1;;;
CS061236;Bibic utca;47.411999;19.005135;CS061236;1;;;
CS061271;Igmandi utca;47.456966;19.020024;CS061271;1;;;
CS061272;Bolygo utca;47.450938;19.016311;CS061272;1;;;
CS061278;Kelenfold vasutallomas;47.464417;19.018475;CS061278;1;;;
CS061286;Szabina ut;47.436871;19.013813;CS061286;1;;;
CS061378;Szoloskert utca;47.502204;18.916607;CS061378;1;;;
CS062511;Than Karoly utca;47.460995;19.025250;CS062511;1;;;
CS062512;Borszeki utca;47.458531;19.023654;CS062512;1;;;
CS062513;Jegmadar utca;47.430714;19.005670;CS062513;1;;;
CS062516;Torok utca;47.412423;18.989310;CS062516;1;;;
CS062518;Marcius 15. ter;47.491221;19.051771;CS062518;1;;;
CS062519;Gazdagreti ut;47.462574;19.005303;CS062519;1;;;
CS062604;Nyar utca;47.435528;18.918511;CS062604;1;;;
CS062621;Egyetemvaros - A38 hajoallomas;47.473653;19.063519;CS062621;1;;;
CS062622;Magyar tudosok korutja;47.471619;19.063856;CS062622;1;;;
CS063399;Hulladekhasznosito Mu;47.583948;19.130879;CS063399;1;;;
CS064074;Massanyi uti lakopark;47.360342;19.028339;CS064074;1;;;
CS064085;Kolcsey Ferenc utca;47.355103;19.035138;CS064085;1;;;
CS064087;Lehel utca;47.352877;19.038640;CS064087;1;;;
CS064092;Jokai utca;47.341170;19.035936;CS064092;1;;;
CS064093;Akacfa korut;47.344030;19.033797;CS064093;1;;;
CS064103;Tamasi aron utca;47.345028;19.028523;CS064103;1;;;
CS064106;Nap utca (ovoda);47.349655;19.025921;CS064106;1;;;
CS064107;osz utca;47.352650;19.025059;CS064107;1;;;
CS064170;Ady Endre utca;47.355452;19.026488;CS064170;1;;;
CS064181;Miklos ter;47.347144;19.023222;CS064181;1;;;
CS064185;Vaci Mihaly utca (Jozsef Attila-telep H);47.338516;19.035837;CS064185;1;;;
CS064208;Szepvolgyi koz;47.541122;19.001823;CS064208;1;;;
CS064210;Fenyogyongye;47.540379;19.006108;CS064210;1;;;
CS064212;Selyemakac utca;47.543099;18.996382;CS064212;1;;;
CS064240;Leshegy utca;47.377015;19.032100;CS064240;1;;;
CS064241;Leshegy Ipari Park;47.375627;19.042412;CS064241;1;;;
CS064243;Temeto utca;47.355796;19.046423;CS064243;1;;;
CS064246;Banyato ut;47.367215;19.048243;CS064246;1;;;
CS064319;Wesselenyi utca;47.351586;19.045357;CS064319;1;;;
CS066451;Infopark;47.468919;19.059591;CS066451;1;;;
CS066453;Budafoki ut / Dombovari ut;47.469496;19.053585;CS066453;1;;;
CS066456;Hauszmann Alajos utca / Szeremi ut;47.466775;19.049663;CS066456;1;;;
CS066458;Hengermalom ut / Szeremi ut;47.462083;19.047590;CS066458;1;;;
CS066715;Nyitany utca;47.480905;19.275893;CS066715;1;;;
CS066717;ontozo utca;47.478818;19.278206;CS066717;1;;;
CS066719;Pestvideki utca;47.476686;19.280591;CS066719;1;;;
CS066856;Pagony utca;47.495030;19.002965;CS066856;1;;;
CS069092;Bem Jozsef ter;47.511826;19.039077;CS069092;1;;;
CS072046;Muflon utca;47.570769;18.931442;CS072046;1;;;
CS072934;Rudas Gyogyfurdo;47.489612;19.047334;CS072934;1;;;
CS073099;Szell Kalman ter;47.507043;19.024349;CS073099;1;;;
CS073309;Solymar vasutallomas;47.595986;18.950096;CS073309;1;;;
CS073427;Muvelodesi Haz;47.428553;18.913078;CS073427;1;;;
CS073473;Munkacsy Mihaly utca (hosi emlekmu);47.431369;18.916646;CS073473;1;;;
CS074021;Kobanyai garazs;47.490789;19.114085;CS074021;1;;;
CS074495;Torokbalint Sportkozpont;47.440283;18.896045;CS074495;1;;;
CS074909;Auchan Liget;47.541341;19.246780;CS074909;1;;;
CS075655;Koves ut / Szentlorinci ut;47.416173;19.143227;CS075655;1;;;
CS076394;Aranyvolgy vasutallomas;47.574063;19.017067;CS076394;1;;;
CS076397;obuda vasutallomas (Aranyhegyi ut);47.570597;19.028084;CS076397;1;;;
CS076399;Aranyvolgy utca 14.;47.571978;19.022142;CS076399;1;;;
CS078064;Nyeki Imre Uszoda;47.451014;19.037025;CS078064;1;;;
CS083329;Bartok Bela ut 208.;47.417243;18.985531;CS083329;1;;;
CS084856;Krisztina ter;47.496848;19.032454;CS084856;1;;;
CS086859;Nepliget;47.475779;19.099856;CS086859;1;;;
CS090366;Forgach utca;47.539045;19.069760;CS090366;1;;;
CS090380;ujpest-Varoskapu;47.560395;19.083294;CS090380;1;;;
CS090482;otvenhatosok tere;47.506930;19.086107;CS090482;1;;;
CS090915;Andor utca / Tetenyi ut;47.456816;19.033734;CS090915;1;;;
CSF00003;Zsolt utca;47.490544;19.030400;CSF00003;1;;;
CSF00005;Meszaros utca;47.488475;19.031323;CSF00005;1;;;
CSF00006;Sanc utca;47.489702;19.035774;CSF00006;1;;;
CSF00011;Szirtes ut;47.487959;19.036737;CSF00011;1;;;
CSF00012;Busulo Juhasz (Citadella);47.485410;19.040042;CSF00012;1;;;
CSF00017;Kiralyhago utca;47.495245;19.023487;CSF00017;1;;;
CSF00020;Nagyenyed utca;47.498156;19.023858;CSF00020;1;;;
CSF00025;Deli palyaudvar;47.500439;19.024385;CSF00025;1;;;
CSF00028;Kormoci utca;47.504306;19.024940;CSF00028;1;;;
CSF00030;Matray utca;47.505961;19.028310;CSF00030;1;;;
CSF00034;Fazekas utca;47.507984;19.033972;CSF00034;1;;;
CSF00037;Varkert Bazar;47.493429;19.043739;CSF00037;1;;;
CSF00053;Halasz utca;47.502085;19.039639;CSF00053;1;;;
CSF00062;Batthyany ter;47.506422;19.038927;CSF00062;1;;;
CSF00065;Batthyany ter;47.506140;19.038929;CSF00065;1;;;
CSF00070;Becsi kapu ter;47.504680;19.030448;CSF00070;1;;;
CSF00072;Szentharomsag ter;47.501361;19.033801;CSF00072;1;;;
CSF00073;Disz ter;47.499171;19.036071;CSF00073;1;;;
CSF00077;Dozsa Gyorgy ter;47.494108;19.037955;CSF00077;1;;;
CSF00088;Miko utca;47.498605;19.029254;CSF00088;1;;;
CSF00091;Korlat utca;47.501824;19.027370;CSF00091;1;;;
CSF00094;Deli palyaudvar;47.500375;19.024802;CSF00094;1;;;
CSF00095;Gyori ut;47.495230;19.025541;CSF00095;1;;;
CSF00097;ag utca;47.495596;19.029452;CSF00097;1;;;
CSF00105;Dobrentei ter;47.490943;19.044451;CSF00105;1;;;
CSF00115;Szanatorium utca (Vadaspark);47.520397;18.938830;CSF00115;1;;;
CSF00117;Kokorcsin utca;47.576561;18.938603;CSF00117;1;;;
CSF00121;Nyereg ut;47.537457;19.013841;CSF00121;1;;;
CSF00122;Pal-volgyi cseppkobarlang;47.533055;19.016619;CSF00122;1;;;
CSF00124;Csalit utca;47.529407;19.016683;CSF00124;1;;;
CSF00128;Folyondar utca (Szepvolgyi ut);47.529379;19.030274;CSF00128;1;;;
CSF00130;uromi utca;47.528111;19.033375;CSF00130;1;;;
CSF00137;Kolosy ter;47.527763;19.037448;CSF00137;1;;;
CSF00140;Szepvolgyi ut;47.527302;19.040168;CSF00140;1;;;
CSF00143;Margitsziget / Margit hid;47.515112;19.043570;CSF00143;1;;;
CSF00148;Labanc ut;47.519022;18.981375;CSF00148;1;;;
CSF00149;Denes utca;47.521639;18.968239;CSF00149;1;;;
CSF00151;Baba utca;47.524248;19.013165;CSF00151;1;;;
CSF00153;Garas utca;47.511415;19.019519;CSF00153;1;;;
CSF00155;Varosmajor;47.509542;19.013348;CSF00155;1;;;
CSF00159;Szent Janos Korhaz;47.509288;19.009231;CSF00159;1;;;
CSF00162;Nagyajtai utca;47.513612;19.002806;CSF00162;1;;;
CSF00166;Budagyongye;47.516153;18.999008;CSF00166;1;;;
CSF00168;Szepilona;47.517583;18.994332;CSF00168;1;;;
CSF00172;Kuruclesi ut;47.518321;18.985045;CSF00172;1;;;
CSF00173;Vizmuvek;47.520114;18.973367;CSF00173;1;;;
CSF00176;Bolcsode;47.523677;18.961835;CSF00176;1;;;
CSF00177;Iren utca;47.524561;18.958747;CSF00177;1;;;
CSF00179;Szepjuhaszne, Gyermekvasut;47.527255;18.954074;CSF00179;1;;;
CSF00182;Laktanya;47.526738;18.948311;CSF00182;1;;;
CSF00183;Orszagos Koranyi Intezet;47.522526;18.941361;CSF00183;1;;;
CSF00185;Margit hid, budai hidfo;47.515375;19.039380;CSF00185;1;;;
CSF00193;Horvat utca;47.510904;19.034443;CSF00193;1;;;
CSF00195;Mechwart liget;47.510891;19.031621;CSF00195;1;;;
CSF00202;Fuge utca;47.513956;19.027088;CSF00202;1;;;
CSF00204;Ret utca;47.514704;19.024059;CSF00204;1;;;
CSF00205;Ady Endre utca;47.516798;19.024238;CSF00205;1;;;
CSF00207;Tapolcsanyi utca;47.517432;19.021018;CSF00207;1;;;
CSF00209;Eszter utca;47.520082;19.021878;CSF00209;1;;;
CSF00213;Pusztaszeri korond;47.522963;19.017568;CSF00213;1;;;
CSF00217;Vend utca;47.522551;19.020595;CSF00217;1;;;
CSF00221;Verhalom ter;47.520761;19.024939;CSF00221;1;;;
CSF00231;Zivatar utca;47.515662;19.031420;CSF00231;1;;;
CSF00234;Margit hid, budai hidfo;47.515012;19.037926;CSF00234;1;;;
CSF00239;Szent Lukacs Gyogyfurdo;47.516970;19.036514;CSF00239;1;;;
CSF00241;Komjadi Bela utca;47.520485;19.036707;CSF00241;1;;;
CSF00245;Zsigmond ter;47.524321;19.037311;CSF00245;1;;;
CSF00250;Felhevizi utca;47.526855;19.030887;CSF00250;1;;;
CSF00251;Pusztaszeri ut 25.;47.527675;19.028449;CSF00251;1;;;
CSF00253;Also Zoldmali ut;47.528290;19.027240;CSF00253;1;;;
CSF00255;Szemlo-hegyi-barlang;47.528766;19.024417;CSF00255;1;;;
CSF00257;Zoldmali lejto;47.528627;19.021814;CSF00257;1;;;
CSF00259;Zoldkert ut;47.529501;19.011084;CSF00259;1;;;
CSF00261;Pitypang utca;47.529908;19.008881;CSF00261;1;;;
CSF00265;Verecke lepcso;47.529081;19.003562;CSF00265;1;;;
CSF00267;Tomorkeny utca;47.527332;19.007658;CSF00267;1;;;
CSF00270;Moricz Zsigmond Gimnazium;47.525498;19.009619;CSF00270;1;;;
CSF00271;Vorostorony lepcso;47.531096;18.997722;CSF00271;1;;;
CSF00276;Pasareti ter;47.523579;18.993579;CSF00276;1;;;
CSF00280;Harangvirag utca;47.521612;18.997625;CSF00280;1;;;
CSF00283;Virag arok;47.519378;19.000687;CSF00283;1;;;
CSF00285;Pasareti ut;47.516381;19.004079;CSF00285;1;;;
CSF00287;Julia utca;47.514487;19.006839;CSF00287;1;;;
CSF00288;Vasas sportpalya;47.511807;19.008533;CSF00288;1;;;
CSF00290;Fenyves utca;47.523291;19.002363;CSF00290;1;;;
CSF00304;Ezredes utca;47.510255;19.021419;CSF00304;1;;;
CSF00306;Szena ter;47.508214;19.027631;CSF00306;1;;;
